id;nome;esfera;categoria;uf;criado_em;Ano do ato legal mais recente;Ato Legal de Criação;municipios;area;amazonia;caatinga;cerrado;mata;pampa;pantanal;mar;bioma;grupo;latitude;longitude
0000.00.1045;RESERVA PARTICULAR DO PATRIMÔNIO NATURAL SÍTIO DO JACU;Federal;Reserva Particular do Patrimônio Natural;SP;2001;2001;Portaria 52/2001 de 23/04/2001;CARAGUATATUBA (SP);2.0;0;0;0;2;0;0;0;Mata Atlântica;Uso Sustentável;-23.6125;-45.4125
0000.00.1047;RESERVA PARTICULAR DO PATRIMÔNIO NATURAL SÍTIO CURUCUTU;Federal;Reserva Particular do Patrimônio Natural;SP;1995;1995;Portaria 102/95-N de 20/12/1995;SÃO PAULO (SP);11.0;0;0;0;11;0;0;0;Mata Atlântica;Uso Sustentável;-23.5329;-46.6395
0000.00.1049;RESERVA PARTICULAR DO PATRIMÔNIO NATURAL MEANDROS II;Federal;Reserva Particular do Patrimônio Natural;SP;2001;2001;Portaria 149/2001 de 24/10/2001;IBIÚNA (SP);145.0;0;0;0;145;0;0;0;Mata Atlântica;Uso Sustentável;-23.6596;-47.223
0000.00.1050;RESERVA PARTICULAR DO PATRIMÔNIO NATURAL RESERVA ECOLÓGICA AMADEU BOTELHO;Federal;Reserva Particular do Patrimônio Natural;SP;2000;2000;Portaria 19 de 27/03/2000;JAÚ (SP);142.0;0;0;0;142;0;0;0;Mata Atlântica;Uso Sustentável;-22.2936;-48.5592
0000.00.1051;RESERVA PARTICULAR DO PATRIMÔNIO NATURAL PARQUE FLORESTAL SÃO MARCELO;Federal;Reserva Particular do Patrimônio Natural;SP;2002;2002;Portaria 120 de 18/09/2002;MOGI MIRIM (SP);186.0;0;0;0;186;0;0;0;Mata Atlântica;Uso Sustentável;-22.4332;-46.9532
0000.00.1052;RESERVA PARTICULAR DO PATRIMÔNIO NATURAL SÍTIO PITHON;Federal;Reserva Particular do Patrimônio Natural;SP;1997;1997;Portaria 11 de 24/02/1997;ARAÇARIGUAMA (SP);26.0;0;0;0;26;0;0;0;Mata Atlântica;Uso Sustentável;-23.4366;-47.0608
0000.00.1054;RESERVA PARTICULAR DO PATRIMÔNIO NATURAL FAZENDA SILVO AGRO-PASTORIL GONÇALVES;Federal;Reserva Particular do Patrimônio Natural;SP;1999;1999;Portaria 102/19-N de 24/11/1999;TAPIRAÍ (SP);61.0;0;0;0;61;0;0;0;Mata Atlântica;Uso Sustentável;-23.9612;-47.5062
0000.00.1055;RESERVA PARTICULAR DO PATRIMÔNIO NATURAL FLORESTA NEGRA, PARQUE NATURAL PARA ESTUDOS, PESQUISA E EDUCAÇÃO AMBIENTAL;Federal;Reserva Particular do Patrimônio Natural;SP;2001;2001;Portaria 104 de 03/09/2001;ARAÇOIABA DA SERRA (SP);7.0;0;0;0;7;0;0;0;Mata Atlântica;Uso Sustentável;-23.5029;-47.6166
0000.00.1056;RESERVA PARTICULAR DO PATRIMÔNIO NATURAL FAZENDA SAN MICHELE;Federal;Reserva Particular do Patrimônio Natural;SP;2001;2001;Portaria 57 de 23/04/2001;SÃO JOSÉ DOS CAMPOS (SP);41.0;0;0;0;41;0;0;0;Mata Atlântica;Uso Sustentável;-23.1896;-45.8841
0000.00.1058;RESERVA PARTICULAR DO PATRIMÔNIO NATURAL FAZENDA RELÓGIO QUEIMADO;Federal;Reserva Particular do Patrimônio Natural;SP;2002;2002;Portaria 56 de 18/04/2002;CAFELÂNDIA (SP);111.0;0;0;0;111;0;0;0;Mata Atlântica;Uso Sustentável;-21.8031;-49.6092
0000.00.1060;RESERVA PARTICULAR DO PATRIMÔNIO NATURAL MEANDROS III;Federal;Reserva Particular do Patrimônio Natural;SP;2001;2001;Portaria 150 de 24/10/2001;IBIÚNA (SP);73.0;0;0;0;73;0;0;0;Mata Atlântica;Uso Sustentável;-23.6596;-47.223
0000.00.1061;RESERVA PARTICULAR DO PATRIMÔNIO NATURAL FAZENDA HORII;Federal;Reserva Particular do Patrimônio Natural;SP;1999;1999;Portaria 108/99-N de 10/12/1999;GUAPIARA (SP);34.0;0;0;0;34;0;0;0;Mata Atlântica;Uso Sustentável;-24.1892;-48.5295
0000.00.1062;RESERVA PARTICULAR DO PATRIMÔNIO NATURAL FAZENDA BELA AURORA;Federal;Reserva Particular do Patrimônio Natural;SP;1999;1999;Portaria 62-N de 16/07/1999;CRUZEIRO (SP);86.0;0;0;0;86;0;0;0;Mata Atlântica;Uso Sustentável;-22.5728;-44.969
0000.00.1063;RESERVA PARTICULAR DO PATRIMÔNIO NATURAL ESTÂNCIA JATOBÁ;Federal;Reserva Particular do Patrimônio Natural;SP;2000;2000;Portaria 105 de 27/12/2000;JAGUARIÚNA (SP);26.0;0;0;0;26;0;0;0;Mata Atlântica;Uso Sustentável;-22.7037;-46.9851
0000.00.1064;RESERVA PARTICULAR DO PATRIMÔNIO NATURAL CENTRO DE VIVÊNCIA COM A NATUREZA - CVN;Federal;Reserva Particular do Patrimônio Natural;SP;2001;2001;Portaria 34 de 02/03/2001;ARAÇOIABA DA SERRA (SP);28.0;0;0;0;28;0;0;0;Mata Atlântica;Uso Sustentável;-23.5029;-47.6166
0000.00.1065;RESERVA PARTICULAR DO PATRIMÔNIO NATURAL RESERVA RIZZIERI;Federal;Reserva Particular do Patrimônio Natural;SP;2003;2003;Portaria 5 de 06/02/2003;SÃO SEBASTIÃO (SP);13.0;0;0;0;13;0;0;0;Mata Atlântica;Uso Sustentável;-23.7951;-45.4143
0000.00.1068;RESERVA PARTICULAR DO PATRIMÔNIO NATURAL SÍTIO RYAN;Federal;Reserva Particular do Patrimônio Natural;SP;1993;1993;Portaria 112/93-N de 20/10/1993;ITAPEVI (SP);19.0;0;0;0;19;0;0;0;Mata Atlântica;Uso Sustentável;-23.5488;-46.9327
0000.00.1070;RESERVA PARTICULAR DO PATRIMÔNIO NATURAL TOQUE TOQUE PEQUENO;Federal;Reserva Particular do Patrimônio Natural;SP;2000;2000;Portaria 9-N de 18/02/2000;SÃO SEBASTIÃO (SP);3.0;0;0;0;3;0;0;0;Mata Atlântica;Uso Sustentável;-23.7951;-45.4143
0000.00.1071;RESERVA PARTICULAR DO PATRIMÔNIO NATURAL VOTURUNA II;Federal;Reserva Particular do Patrimônio Natural;SP;1994;1994;Portaria 123/94-N de 14/11/1994;SANTANA DE PARNAÍBA (SP);58.0;0;0;0;58;0;0;0;Mata Atlântica;Uso Sustentável;-23.4439;-46.9178
0000.00.1072;RESERVA PARTICULAR DO PATRIMÔNIO NATURAL VOTURUNA V;Federal;Reserva Particular do Patrimônio Natural;SP;1994;1994;Portaria 113-N de 21/10/1994;PIRAPORA DO BOM JESUS (SP);56.0;0;0;0;56;0;0;0;Mata Atlântica;Uso Sustentável;-23.3965;-46.9991
0000.00.1074;RESERVA PARTICULAR DO PATRIMÔNIO NATURAL ECOWORLD;Federal;Reserva Particular do Patrimônio Natural;SP;1999;1999;Portaria 64 de 19/07/1999;ATIBAIA (SP);51.0;0;0;0;51;0;0;0;Mata Atlântica;Uso Sustentável;-23.1171;-46.5563
0000.00.1075;RESERVA PARTICULAR DO PATRIMÔNIO NATURAL CARBOCLORO S/A;Federal;Reserva Particular do Patrimônio Natural;SP;1992;1993;Portaria 145/92-N de 30/12/1992;CUBATÃO (SP);1.0;0;0;0;1;0;0;0;Mata Atlântica;Uso Sustentável;-23.8911;-46.424
0000.00.1076;RESERVA PARTICULAR DO PATRIMÔNIO NATURAL SÍTIO PRIMAVERA;Federal;Reserva Particular do Patrimônio Natural;SP;2000;2000;Portaria 37 de 20/06/2000;SÃO LUIZ DO PARAITINGA (SP);19.0;0;0;0;19;0;0;0;Mata Atlântica;Uso Sustentável;-23.222;-45.3109
0000.00.1077;RESERVA PARTICULAR DO PATRIMÔNIO NATURAL FONTE DA BICA;Federal;Reserva Particular do Patrimônio Natural;SE;1999;1999;Portaria 70 de 13/09/1999;AREIA BRANCA (SE);13.0;0;0;0;13;0;0;0;Mata Atlântica;Uso Sustentável;-10.758;-37.3251
0000.00.1078;RESERVA PARTICULAR DO PATRIMÔNIO NATURAL RESERVA RIO DAS FURNAS;Federal;Reserva Particular do Patrimônio Natural;SC;2002;2002;Portaria 61 de 18/04/2002;ALFREDO WAGNER (SC);10.0;0;0;0;10;0;0;0;Mata Atlântica;Uso Sustentável;-27.7001;-49.3273
0000.00.1082;RESERVA PARTICULAR DO PATRIMÔNIO NATURAL NORMANDO TEDESCO;Federal;Reserva Particular do Patrimônio Natural;SC;1999;1999;Portaria 57-N/1999 de 09/07/1999;BALNEÁRIO CAMBORIÚ (SC);4.0;0;0;0;4;0;0;0;Mata Atlântica;Uso Sustentável;-26.9926;-48.6352
0000.00.1083;RESERVA PARTICULAR DO PATRIMÔNIO NATURAL FAZENDA PALMITAL;Federal;Reserva Particular do Patrimônio Natural;SC;1992;1992;Portaria 70 de 25/06/1992;ITAPOÁ (SC);591.0;0;0;0;591;0;0;0;Mata Atlântica;Uso Sustentável;-26.1158;-48.6182
0000.00.1084;RESERVA PARTICULAR DO PATRIMÔNIO NATURAL RESERVA NATURAL MENINO DEUS;Federal;Reserva Particular do Patrimônio Natural;SC;1999;1999;Portaria 85 de 06/10/1999;FLORIANÓPOLIS (SC);16.0;0;0;0;16;0;0;0;Mata Atlântica;Uso Sustentável;-27.5945;-48.5477
0000.00.1085;RESERVA PARTICULAR DO PATRIMÔNIO NATURAL PRIMA LUNA;Federal;Reserva Particular do Patrimônio Natural;SC;2001;2001;Portaria 100 de 03/09/2001;NOVA TRENTO (SC);100.0;0;0;0;100;0;0;0;Mata Atlântica;Uso Sustentável;-27.278;-48.9298
0000.00.1086;RESERVA PARTICULAR DO PATRIMÔNIO NATURAL PARQUE ECOLÓGICO ARTEX;Federal;Reserva Particular do Patrimônio Natural;SC;1992;1993;Portaria 143-N de 30/12/1992;BLUMENAU (SC);5296.0;0;0;0;5296;0;0;0;Mata Atlântica;Uso Sustentável;-26.9155;-49.0709
0000.00.1088;RESERVA PARTICULAR DO PATRIMÔNIO NATURAL FAZENDA ARAUCÁRIA;Federal;Reserva Particular do Patrimônio Natural;SC;2000;2000;Portaria 41 de 09/08/2000;SÃO JOAQUIM (SC);50.0;0;0;0;50;0;0;0;Mata Atlântica;Uso Sustentável;-28.2887;-49.9457
0000.00.1089;RESERVA PARTICULAR DO PATRIMÔNIO NATURAL FAZENDA POUSADA SERRA PITOCO;Federal;Reserva Particular do Patrimônio Natural;SC;1997;1997;Portaria 40 de 30/04/1997;ITUPORANGA (SC);3.0;0;0;0;3;0;0;0;Mata Atlântica;Uso Sustentável;-27.4101;-49.5963
0000.00.1091;RESERVA PARTICULAR DO PATRIMÔNIO NATURAL CHÁCARA EDITH;Federal;Reserva Particular do Patrimônio Natural;SC;2001;2001;Portaria 158 de 24/10/2001;BRUSQUE (SC);416.0;0;0;0;416;0;0;0;Mata Atlântica;Uso Sustentável;-27.0977;-48.9107
0000.00.1092;RESERVA PARTICULAR DO PATRIMÔNIO NATURAL BIO ESTAÇÃO ÁGUAS CRISTALINAS;Federal;Reserva Particular do Patrimônio Natural;SC;2002;2002;Portaria 19 de 05/02/2002;BRUSQUE (SC);103.0;0;0;0;103;0;0;0;Mata Atlântica;Uso Sustentável;-27.0977;-48.9107
0000.00.1093;RESERVA PARTICULAR DO PATRIMÔNIO NATURAL BARRA DO RIO DO MEIO;Federal;Reserva Particular do Patrimônio Natural;SC;1999;1999;Portaria 23 de 23/02/1999;SANTA ROSA DE LIMA (SC);10.0;0;0;0;10;0;0;0;Mata Atlântica;Uso Sustentável;-28.0331;-49.133
0000.00.1094;RESERVA PARTICULAR DO PATRIMÔNIO NATURAL MORRO DA PALHA;Federal;Reserva Particular do Patrimônio Natural;SC;2002;2002;Portaria 62 de 18/04/2002;SÃO FRANCISCO DO SUL (SC);7.0;0;0;0;7;0;0;0;Mata Atlântica;Uso Sustentável;-26.2579;-48.6344
0000.00.1096;RESERVA PARTICULAR DO PATRIMÔNIO NATURAL ANO BOM;Federal;Reserva Particular do Patrimônio Natural;SC;2001;2001;Portaria 167 de 14/11/2001;SÃO BENTO DO SUL (SC);87.0;0;0;0;87;0;0;0;Mata Atlântica;Uso Sustentável;-26.2495;-49.3831
0000.00.1097;RESERVA PARTICULAR DO PATRIMÔNIO NATURAL CAETEZAL;Federal;Reserva Particular do Patrimônio Natural;SC;2001;2001;Portaria 168 de 14/11/2001;JOINVILLE (SC);4582.0;0;0;0;4582;0;0;0;Mata Atlântica;Uso Sustentável;-26.3045;-48.8487
0000.00.1098;RESERVA PARTICULAR DO PATRIMÔNIO NATURAL RESERVA BUGERKOPF;Federal;Reserva Particular do Patrimônio Natural;SC;1992;1993;Portaria 148 de 30/12/1992;BLUMENAU (SC);82.0;0;0;0;82;0;0;0;Mata Atlântica;Uso Sustentável;-26.9155;-49.0709
0000.00.1099;RESERVA PARTICULAR DO PATRIMÔNIO NATURAL GRALHA AZUL;Federal;Reserva Particular do Patrimônio Natural;SC;2000;2000;Portaria 27 de 27/04/2000;ÁGUA DOCE (SC);49.0;0;0;0;49;0;0;0;Mata Atlântica;Uso Sustentável;-26.9985;-51.5528
0000.00.1100;RESERVA PARTICULAR DO PATRIMÔNIO NATURAL DO GUAXINIM;Federal;Reserva Particular do Patrimônio Natural;SC;2001;2001;Portaria 66 de 21/05/2001;SÃO JOSÉ (SC);26.0;0;0;0;26;0;0;0;Mata Atlântica;Uso Sustentável;-27.6136;-48.6366
0000.00.1101;RESERVA PARTICULAR DO PATRIMÔNIO NATURAL PASSARIM;Federal;Reserva Particular do Patrimônio Natural;SC;2004;2004;Portaria 21/2004-N de 05/03/2004;PAULO LOPES (SC);228.0;0;0;0;228;0;0;0;Mata Atlântica;Uso Sustentável;-27.9607;-48.6864
0000.00.1106;RESERVA PARTICULAR DO PATRIMÔNIO NATURAL RECANTO DO ROBALO;Federal;Reserva Particular do Patrimônio Natural;RS;2002;2002;Portaria 57 de 18/04/2002;TORRES (RS);10.0;0;0;0;10;0;0;0;Mata Atlântica;Uso Sustentável;-29.3334;-49.7333
0000.00.1107;RESERVA PARTICULAR DO PATRIMÔNIO NATURAL RESERVA PARTICULAR SCHUSTER;Federal;Reserva Particular do Patrimônio Natural;RS;1992;1992;Portaria 20 de 04/02/1992;HUMAITÁ (RS);4.0;0;0;0;4;0;0;0;Mata Atlântica;Uso Sustentável;-27.5691;-53.9695
0000.00.1112;RESERVA PARTICULAR DO PATRIMÔNIO NATURAL RANCHO MIRA-SERRA;Federal;Reserva Particular do Patrimônio Natural;RS;1997;1997;Portaria 124/97-N de 27/10/1997;SÃO FRANCISCO DE PAULA (RS);17.0;0;0;0;17;0;0;0;Mata Atlântica;Uso Sustentável;-29.4404;-50.5828
0000.00.1114;RESERVA PARTICULAR DO PATRIMÔNIO NATURAL SAPUCAIA;Federal;Reserva Particular do Patrimônio Natural;BA;2002;2002;Portaria 52 de 18/04/2002;MARAÚ (BA);18.0;0;0;0;18;0;0;0;Mata Atlântica;Uso Sustentável;-14.1035;-39.0137
0000.00.1123;RESERVA PARTICULAR DO PATRIMÔNIO NATURAL BOSQUE DE CANELA;Federal;Reserva Particular do Patrimônio Natural;RS;1998;1998;Portaria 118/98-N de 21/08/1998;CANELA (RS);6.0;0;0;0;6;0;0;0;Mata Atlântica;Uso Sustentável;-29.356;-50.8119
0000.00.1137;RESERVA PARTICULAR DO PATRIMÔNIO NATURAL MATA ESTRELA;Federal;Reserva Particular do Patrimônio Natural;RN;2000;2000;Portaria 20 de 30/03/2000;BAÍA FORMOSA (RN);2039.0;0;0;0;2039;0;0;0;Mata Atlântica;Uso Sustentável;-6.37161;-35.0033
0000.00.1139;RESERVA PARTICULAR DO PATRIMÔNIO NATURAL FAZENDA SÃO BENEDITO;Federal;Reserva Particular do Patrimônio Natural;RJ;2001;2001;Portaria 70 de 23/05/2001;RIO CLARO (RJ);143.0;0;0;0;143;0;0;0;Mata Atlântica;Uso Sustentável;-22.72;-44.1419
0000.00.1140;RESERVA PARTICULAR DO PATRIMÔNIO NATURAL FAZENDA SÃO GERALDO;Federal;Reserva Particular do Patrimônio Natural;RJ;1999;1999;Portaria 39-N de 16/04/1999;VALENÇA (RJ);172.0;0;0;0;172;0;0;0;Mata Atlântica;Uso Sustentável;-22.2445;-43.7129
0000.00.1143;RESERVA PARTICULAR DO PATRIMÔNIO NATURAL FAZENDA SANTA IZABEL;Federal;Reserva Particular do Patrimônio Natural;RJ;1996;1996;Portaria 05/96-N de 23/01/1996;MANGARATIBA (RJ);522.0;0;0;0;522;0;0;0;Mata Atlântica;Uso Sustentável;-22.9594;-44.0409
0000.00.1144;RESERVA PARTICULAR DO PATRIMÔNIO NATURAL RESERVA NOSSA SENHORA DAS GRAÇAS;Federal;Reserva Particular do Patrimônio Natural;RJ;2002;2002;Portaria 171 de 26/12/2002;RIO CLARO (RJ);31.0;0;0;0;31;0;0;0;Mata Atlântica;Uso Sustentável;-22.72;-44.1419
0000.00.1145;RESERVA PARTICULAR DO PATRIMÔNIO NATURAL PEDRA AMARILIS;Federal;Reserva Particular do Patrimônio Natural;RJ;1993;1993;Portaria 06-N de 02/02/1993;PETRÓPOLIS (RJ);40.0;0;0;0;40;0;0;0;Mata Atlântica;Uso Sustentável;-22.52;-43.1926
0000.00.1146;RESERVA PARTICULAR DO PATRIMÔNIO NATURAL RESERVA ECOLÓGICA METODISTA ANA GONZAGA - CEMAG;Federal;Reserva Particular do Patrimônio Natural;RJ;1999;1999;Portaria 44-N de 13/05/1999;RIO DE JANEIRO (RJ);73.0;0;0;0;73;0;0;0;Mata Atlântica;Uso Sustentável;-22.9129;-43.2003
0000.00.1147;RESERVA PARTICULAR DO PATRIMÔNIO NATURAL JORNALISTA ANTENOR NOVAES;Federal;Reserva Particular do Patrimônio Natural;RJ;1999;1999;Portaria 29-N de 11/03/1999;ENGENHEIRO PAULO DE FRONTIN (RJ);125.0;0;0;0;125;0;0;0;Mata Atlântica;Uso Sustentável;-22.5498;-43.6827
0000.00.1148;RESERVA PARTICULAR DO PATRIMÔNIO NATURAL MATO GROSSO;Federal;Reserva Particular do Patrimônio Natural;RJ;2001;2001;Portaria 72 de 23/05/2001;SAQUAREMA (RJ);26.0;0;0;0;26;0;0;0;Mata Atlântica;Uso Sustentável;-22.9292;-42.5099
0000.00.1152;RESERVA PARTICULAR DO PATRIMÔNIO NATURAL FAZENDA LIMEIRA;Federal;Reserva Particular do Patrimônio Natural;RJ;1997;1997;Portaria 61-N de 10/06/1997;PETRÓPOLIS (RJ);19.0;0;0;0;19;0;0;0;Mata Atlântica;Uso Sustentável;-22.52;-43.1926
0000.00.1153;RESERVA PARTICULAR DO PATRIMÔNIO NATURAL SÍTIO ANGABA;Federal;Reserva Particular do Patrimônio Natural;RJ;1992;1992;Portaria 41/92 de 07/04/1992;ITAGUAÍ (RJ);29.0;0;0;0;29;0;0;0;Mata Atlântica;Uso Sustentável;-22.8636;-43.7798
0000.00.1155;RESERVA PARTICULAR DO PATRIMÔNIO NATURAL FAZENDA CÓRREGO DA LUZ;Federal;Reserva Particular do Patrimônio Natural;RJ;1993;1993;Portaria 16-N de 19/02/1993;CASIMIRO DE ABREU (RJ);20.0;0;0;0;20;0;0;0;Mata Atlântica;Uso Sustentável;-22.4812;-42.2066
0000.00.1156;RESERVA PARTICULAR DO PATRIMÔNIO NATURAL FAZENDA CACHOEIRINHA;Federal;Reserva Particular do Patrimônio Natural;RJ;1999;1999;Portaria 22 de 23/02/1999;MANGARATIBA (RJ);650.0;0;0;0;650;0;0;0;Mata Atlântica;Uso Sustentável;-22.9594;-44.0409
0000.00.1162;RESERVA PARTICULAR DO PATRIMÔNIO NATURAL FAZENDA ROÇA GRANDE;Federal;Reserva Particular do Patrimônio Natural;RJ;1991;1991;Portaria 481 de 04/03/1991;RIO CLARO (RJ);64.0;0;0;0;64;0;0;0;Mata Atlântica;Uso Sustentável;-22.72;-44.1419
0000.00.1168;RESERVA PARTICULAR DO PATRIMÔNIO NATURAL RESERVA PORANGABA;Federal;Reserva Particular do Patrimônio Natural;RJ;2002;2002;Portaria 123 de 20/09/2002;ITAGUAÍ (RJ);9.0;0;0;0;9;0;0;0;Mata Atlântica;Uso Sustentável;-22.8636;-43.7798
0000.00.1169;RESERVA PARTICULAR DO PATRIMÔNIO NATURAL MARIA FRANCISCA GUIMARÃES;Federal;Reserva Particular do Patrimônio Natural;RJ;1998;1998;Portaria 160-N de 07/12/1998;TERESÓPOLIS (RJ);1.0;0;0;0;1;0;0;0;Mata Atlântica;Uso Sustentável;-22.4165;-42.9752
0000.00.1170;RESERVA PARTICULAR DO PATRIMÔNIO NATURAL GAIA;Federal;Reserva Particular do Patrimônio Natural;RJ;2002;2002;Portaria 122 de 20/09/2002;BOM JARDIM (RJ);40.0;0;0;0;40;0;0;0;Mata Atlântica;Uso Sustentável;-22.1545;-42.4251
0000.00.1172;RESERVA PARTICULAR DO PATRIMÔNIO NATURAL SÍTIO SANTA FÉ;Federal;Reserva Particular do Patrimônio Natural;RJ;1996;1996;Portaria 110-N de 29/11/1996;SILVA JARDIM (RJ);14.0;0;0;0;14;0;0;0;Mata Atlântica;Uso Sustentável;-22.6574;-42.3961
0000.00.1173;RESERVA PARTICULAR DO PATRIMÔNIO NATURAL SÍTIO PORANGA;Federal;Reserva Particular do Patrimônio Natural;RJ;1992;1992;Portaria 41/92 de 07/04/1992;ITAGUAÍ (RJ);34.0;0;0;0;34;0;0;0;Mata Atlântica;Uso Sustentável;-22.8636;-43.7798
0000.00.1175;RESERVA PARTICULAR DO PATRIMÔNIO NATURAL SÍTIO GRANJA SÃO JORGE;Federal;Reserva Particular do Patrimônio Natural;RJ;1999;1999;Portaria 91-N de 15/10/1999;RIO DE JANEIRO (RJ);3.0;0;0;0;3;0;0;0;Mata Atlântica;Uso Sustentável;-22.9129;-43.2003
0000.00.1181;RESERVA PARTICULAR DO PATRIMÔNIO NATURAL IGUAÇU I;Federal;Reserva Particular do Patrimônio Natural;PR;2001;2001;Portaria 166 de 14/11/2001;QUEDAS DO IGUAÇU (PR);5171.0;0;0;0;5171;0;0;0;Mata Atlântica;Uso Sustentável;-25.4492;-52.9102
0000.00.1182;RESERVA PARTICULAR DO PATRIMÔNIO NATURAL PRIMAVERA I;Federal;Reserva Particular do Patrimônio Natural;BA;2008;2008;Portaria 75/2008 de 10/09/2008;PRADO (BA);500.0;0;0;0;500;0;0;0;Mata Atlântica;Uso Sustentável;-17.3364;-39.2227
0000.00.1183;RESERVA PARTICULAR DO PATRIMÔNIO NATURAL DAS ARAUCÁRIAS;Federal;Reserva Particular do Patrimônio Natural;PR;1999;1999;Portaria 79/99-N de 21/09/1999;GENERAL CARNEIRO (PR);114.0;0;0;0;114;0;0;0;Mata Atlântica;Uso Sustentável;-26.425;-51.3172
0000.00.1186;RESERVA PARTICULAR DO PATRIMÔNIO NATURAL ALEGRETE;Federal;Reserva Particular do Patrimônio Natural;PR;1994;1994;Portaria 070/1994-N de 07/07/1994;PALMEIRA (PR);153.0;0;0;0;153;0;0;0;Mata Atlântica;Uso Sustentável;-25.4257;-50.007
0000.00.1187;RESERVA PARTICULAR DO PATRIMÔNIO NATURAL SÍTIO MONTE ARARAT;Federal;Reserva Particular do Patrimônio Natural;PR;2002;2002;Portaria 104/2002 de 07/08/2002;BOCAIÚVA DO SUL (PR);10.0;0;0;0;10;0;0;0;Mata Atlântica;Uso Sustentável;-25.2066;-49.1141
0000.00.1189;RESERVA PARTICULAR DO PATRIMÔNIO NATURAL SÍTIO DO BANANAL;Federal;Reserva Particular do Patrimônio Natural;PR;2002;2002;Portaria 49/2002 de 18/04/2002;MORRETES (PR);29.0;0;0;0;29;0;0;0;Mata Atlântica;Uso Sustentável;-25.4744;-48.8345
0000.00.1200;RESERVA PARTICULAR DO PATRIMÔNIO NATURAL FREI CANECA;Federal;Reserva Particular do Patrimônio Natural;PE;2002;2002;Portaria 91 de 06/08/2002;JAQUEIRA (PE);619.0;0;0;0;619;0;0;0;Mata Atlântica;Uso Sustentável;-8.72618;-35.7942
0000.00.1201;RESERVA PARTICULAR DO PATRIMÔNIO NATURAL NOSSA SENHORA DO OITEIRO DE MARACAÍPE;Federal;Reserva Particular do Patrimônio Natural;PE;2000;2000;Portaria 58 de 26/09/2000;IPOJUCA (PE);75.0;0;0;0;75;0;0;0;Mata Atlântica;Uso Sustentável;-8.39303;-35.0609
0000.00.1236;RESERVA PARTICULAR DO PATRIMÔNIO NATURAL FAZENDA FLORESTA NEGRA;Federal;Reserva Particular do Patrimônio Natural;MS;2001;2001;Portaria 160 de 24/10/2001;SETE QUEDAS (MS);953.0;0;0;0;953;0;0;0;Mata Atlântica;Uso Sustentável;-23.9705;-55.0398
0000.00.1248;RESERVA PARTICULAR DO PATRIMÔNIO NATURAL FAZENDA RESSACA;Federal;Reserva Particular do Patrimônio Natural;MG;1998;1998;Portaria 25/98-N de 02/03/1998;MANGA (MG);4055.0;0;0;0;4055;0;0;0;Mata Atlântica;Uso Sustentável;-14.7529;-43.9391
0000.00.1254;RESERVA PARTICULAR DO PATRIMÔNIO NATURAL FELICIANO MIGUEL ABDALA;Federal;Reserva Particular do Patrimônio Natural;MG;2001;2001;Portaria 116/2001 de 03/09/2001;CARATINGA (MG);950.0;0;0;0;950;0;0;0;Mata Atlântica;Uso Sustentável;-19.7868;-42.1292
0000.00.1255;RESERVA PARTICULAR DO PATRIMÔNIO NATURAL FAZENDA MACEDÔNIA;Federal;Reserva Particular do Patrimônio Natural;MG;1994;1994;Portaria 111/94-N de 14/10/1994;IPABA (MG);560.0;0;0;0;560;0;0;0;Mata Atlântica;Uso Sustentável;-19.4158;-42.4139
0000.00.1256;RESERVA PARTICULAR DO PATRIMÔNIO NATURAL MONLEVADE;Federal;Reserva Particular do Patrimônio Natural;MG;1993;1993;Portaria 17-N de 19/02/1993;JOÃO MONLEVADE (MG);519.0;0;0;0;519;0;0;0;Mata Atlântica;Uso Sustentável;-19.8126;-43.1735
0000.00.1267;RESERVA PARTICULAR DO PATRIMÔNIO NATURAL ESTAÇÃO BIOLÓGICA DA MATA DO SOSSEGO;Federal;Reserva Particular do Patrimônio Natural;MG;1998;1998;Portaria 20-N de 16/02/1998;SIMONÉSIA (MG);134.0;0;0;0;134;0;0;0;Mata Atlântica;Uso Sustentável;-20.1341;-42.0091
0000.00.1269;RESERVA PARTICULAR DO PATRIMÔNIO NATURAL COMODATO RESERVA DE PETI;Federal;Reserva Particular do Patrimônio Natural;MG;2001;2001;Portaria 99/2001 de 03/09/2001;SÃO GONÇALO DO RIO ABAIXO (MG);96.0;0;0;0;96;0;0;0;Mata Atlântica;Uso Sustentável;-19.8221;-43.366
0000.00.1270;RESERVA PARTICULAR DO PATRIMÔNIO NATURAL FAZENDA ALTO DA BOA VISTA;Federal;Reserva Particular do Patrimônio Natural;MG;1999;1999;Portaria 11-N de 11/02/1999;BOCAINA DE MINAS (MG);55.0;0;0;0;55;0;0;0;Mata Atlântica;Uso Sustentável;-22.1697;-44.3972
0000.00.1275;RESERVA PARTICULAR DO PATRIMÔNIO NATURAL FAZENDA DO IRACAMBI;Federal;Reserva Particular do Patrimônio Natural;MG;1999;1999;Portaria 74/99-N de 13/09/1999;ROSÁRIO DA LIMEIRA (MG);69.0;0;0;0;69;0;0;0;Mata Atlântica;Uso Sustentável;-20.9812;-42.5112
0000.00.1279;RESERVA PARTICULAR DO PATRIMÔNIO NATURAL VILA ANA ANGÉLICA;Federal;Reserva Particular do Patrimônio Natural;MG;1998;1998;Portaria 140/98-N de 02/10/1998;ANTÔNIO DIAS (MG);46.0;0;0;0;46;0;0;0;Mata Atlântica;Uso Sustentável;-19.6491;-42.8732
0000.00.1280;RESERVA PARTICULAR DO PATRIMÔNIO NATURAL ITAJURÚ OU SOBRADO;Federal;Reserva Particular do Patrimônio Natural;MG;2002;2002;Portaria 109/2002 de 08/08/2002;SANTA BÁRBARA (MG);43.0;0;0;0;43;0;0;0;Mata Atlântica;Uso Sustentável;-19.9604;-43.4101
0000.00.1281;RESERVA PARTICULAR DO PATRIMÔNIO NATURAL PANELÃO DOS MURIQUES;Federal;Reserva Particular do Patrimônio Natural;MG;2001;2001;Portaria 134 de 05/10/2001;FERVEDOURO (MG);40.0;0;0;0;40;0;0;0;Mata Atlântica;Uso Sustentável;-20.726;-42.279
0000.00.1284;RESERVA PARTICULAR DO PATRIMÔNIO NATURAL MATA DO BUGIO;Federal;Reserva Particular do Patrimônio Natural;MG;2004;2004;Portaria 22/94-N de 05/03/2004;RIO NOVO (MG);37.0;0;0;0;37;0;0;0;Mata Atlântica;Uso Sustentável;-21.4649;-43.1168
0000.00.1288;RESERVA PARTICULAR DO PATRIMÔNIO NATURAL FAZENDA PEDRA BONITA;Federal;Reserva Particular do Patrimônio Natural;MG;1992;1992;Portaria 44/92-N de 27/04/1992;SÃO JOÃO NEPOMUCENO (MG);33.0;0;0;0;33;0;0;0;Mata Atlântica;Uso Sustentável;-21.5381;-43.0069
0000.00.1289;RESERVA PARTICULAR DO PATRIMÔNIO NATURAL SÍTIO ESTRELA DA SERRA;Federal;Reserva Particular do Patrimônio Natural;MG;1997;1997;Portaria 114-N de 01/10/1997;OLARIA (MG);30.0;0;0;0;30;0;0;0;Mata Atlântica;Uso Sustentável;-21.8598;-43.9356
0000.00.1290;RESERVA PARTICULAR DO PATRIMÔNIO NATURAL SÍTIO RAIO SOLAR;Federal;Reserva Particular do Patrimônio Natural;MG;1999;1999;Portaria 71/99-N de 13/09/1999;EXTREMA (MG);29.0;0;0;0;29;0;0;0;Mata Atlântica;Uso Sustentável;-22.854;-46.3178
0000.00.1292;RESERVA PARTICULAR DO PATRIMÔNIO NATURAL NAVE DA ESPERANÇA;Federal;Reserva Particular do Patrimônio Natural;MG;2000;2000;Portaria 66/2000 de 17/10/2000;AIURUOCA (MG);27.0;0;0;0;27;0;0;0;Mata Atlântica;Uso Sustentável;-21.9736;-44.6042
0000.00.1294;RESERVA PARTICULAR DO PATRIMÔNIO NATURAL FAZENDA DA SERRA;Federal;Reserva Particular do Patrimônio Natural;MG;2000;2000;Portaria 67/2000 de 17/10/2000;LIMA DUARTE (MG);22.0;0;0;0;22;0;0;0;Mata Atlântica;Uso Sustentável;-21.8386;-43.7934
0000.00.1296;RESERVA PARTICULAR DO PATRIMÔNIO NATURAL - FAZENDA BARRA DO PIRAPETINGA;Federal;Reserva Particular do Patrimônio Natural;MG;1999;1999;Portaria 73/99-N de 13/09/1999;PIRANGA (MG);22.0;0;0;0;22;0;0;0;Mata Atlântica;Uso Sustentável;-20.6834;-43.2967
0000.00.1297;RESERVA PARTICULAR DO PATRIMÔNIO NATURAL BREJO NOVO;Federal;Reserva Particular do Patrimônio Natural;MG;2002;2002;Portaria 137/02-N de 11/10/2002;SANTOS DUMONT (MG);18.0;0;0;0;18;0;0;0;Mata Atlântica;Uso Sustentável;-21.4634;-43.5499
0000.00.1301;RESERVA PARTICULAR DO PATRIMÔNIO NATURAL PARQUE ARQUEOLÓGICO DA SERRA DO SANTO ANTÔNIO;Federal;Reserva Particular do Patrimônio Natural;MG;2001;2001;Portaria 161 de 24/10/2001;ANDRELÂNDIA (MG);9.0;0;0;0;9;0;0;0;Mata Atlântica;Uso Sustentável;-21.7411;-44.3117
0000.00.1302;RESERVA PARTICULAR DO PATRIMÔNIO NATURAL SÍTIO SÃO FRANCISCO;Federal;Reserva Particular do Patrimônio Natural;MG;1998;1998;Portaria 153-N de 13/11/1998;CONGONHAS (MG);8.0;0;0;0;8;0;0;0;Mata Atlântica;Uso Sustentável;-20.4958;-43.851
0000.00.1303;RESERVA PARTICULAR DO PATRIMÔNIO NATURAL SÍTIO SANNYASIM;Federal;Reserva Particular do Patrimônio Natural;MG;1997;1997;Portaria 043/97-N de 13/05/1997;DESCOBERTO (MG);5.0;0;0;0;5;0;0;0;Mata Atlântica;Uso Sustentável;-21.46;-42.9618
0000.00.1306;RESERVA PARTICULAR DO PATRIMÔNIO NATURAL DOS FEIXOS;Federal;Reserva Particular do Patrimônio Natural;MG;2002;2002;Portaria 79 de 05/07/2002;NOVA LIMA (MG);2.0;0;0;0;2;0;0;0;Mata Atlântica;Uso Sustentável;-19.9758;-43.8509
0000.00.1307;RESERVA PARTICULAR DO PATRIMÔNIO NATURAL SÍTIO GRIMPAS;Federal;Reserva Particular do Patrimônio Natural;MG;1995;1995;Portaria 108/95-N de 27/12/1995;BRUMADINHO (MG);2.0;0;0;0;2;0;0;0;Mata Atlântica;Uso Sustentável;-20.151;-44.2007
0000.00.1308;RESERVA PARTICULAR DO PATRIMÔNIO NATURAL SÍTIO PIRILAMPO;Federal;Reserva Particular do Patrimônio Natural;MG;2000;2000;Portaria 40/2000 de 18/07/2000;IJACI (MG);2.0;0;0;0;2;0;0;0;Mata Atlântica;Uso Sustentável;-21.1738;-44.9233
0000.00.1309;RESERVA PARTICULAR DO PATRIMÔNIO NATURAL SEMENTE DO ARCO ÍRIS;Federal;Reserva Particular do Patrimônio Natural;MG;2002;2002;Portaria 63/2002 de 18/04/2002;TOLEDO (MG);2.0;0;0;0;2;0;0;0;Mata Atlântica;Uso Sustentável;-22.7421;-46.3728
0000.00.1311;RESERVA PARTICULAR DO PATRIMÔNIO NATURAL LY E CLÉO;Federal;Reserva Particular do Patrimônio Natural;MG;1999;1999;Portaria 104/99-N de 24/11/1999;MONTE SIÃO (MG);1.0;0;0;0;1;0;0;0;Mata Atlântica;Uso Sustentável;-22.4335;-46.573
0000.00.1313;RESERVA PARTICULAR DO PATRIMÔNIO NATURAL SÍTIO CERRO DAS ACÁCIAS;Federal;Reserva Particular do Patrimônio Natural;MG;1999;1999;Portaria 69/99-N de 13/09/1999;SÃO JOÃO NEPOMUCENO (MG);1.0;0;0;0;1;0;0;0;Mata Atlântica;Uso Sustentável;-21.5381;-43.0069
0000.00.1370;RESERVA PARTICULAR DO PATRIMÔNIO NATURAL FAZENDA SANTA CRISTINA;Federal;Reserva Particular do Patrimônio Natural;ES;1998;1998;Portaria 157 de 26/11/1998;MONTANHA (ES);29.0;0;0;0;29;0;0;0;Mata Atlântica;Uso Sustentável;-18.1303;-40.3668
0000.00.1371;RESERVA PARTICULAR DO PATRIMÔNIO NATURAL FAZENDA SAYONARA;Federal;Reserva Particular do Patrimônio Natural;ES;2001;2001;Portaria 107 de 03/09/2001;CONCEIÇÃO DA BARRA (ES);28.0;0;0;0;28;0;0;0;Mata Atlântica;Uso Sustentável;-18.5883;-39.7362
0000.00.1394;RESERVA PARTICULAR DO PATRIMÔNIO NATURAL FAZENDA LONTRA/SAUDADE;Federal;Reserva Particular do Patrimônio Natural;BA;1996;1996;Portaria 95/996-N de 25/10/1996;ITANAGRA (BA);1377.0;0;0;0;1377;0;0;0;Mata Atlântica;Uso Sustentável;-12.2614;-38.0436
0000.00.1403;RESERVA PARTICULAR DO PATRIMÔNIO NATURAL RIO CAPITÃO;Federal;Reserva Particular do Patrimônio Natural;BA;2004;2004;Portaria 24/04-N de 08/03/2004;ITACARÉ (BA);385.0;0;0;0;385;0;0;0;Mata Atlântica;Uso Sustentável;-14.2784;-38.9959
0000.00.1404;RESERVA PARTICULAR DO PATRIMÔNIO NATURAL CAJUEIRO;Federal;Reserva Particular do Patrimônio Natural;BA;2002;2002;Portaria 136 de 11/10/2002;ESPLANADA (BA);374.0;0;0;0;374;0;0;0;Mata Atlântica;Uso Sustentável;-11.7942;-37.9432
0000.00.1406;RESERVA PARTICULAR DO PATRIMÔNIO NATURAL RESERVA DA PENINHA;Federal;Reserva Particular do Patrimônio Natural;BA;2002;2002;Portaria 18/2002 de 31/01/2002;CACHOEIRA (BA);346.0;0;0;0;346;0;0;0;Mata Atlântica;Uso Sustentável;-12.5994;-38.9587
0000.00.1407;RESERVA PARTICULAR DO PATRIMÔNIO NATURAL SÃO JOQUIM DA CABONHA APA I E APA II;Federal;Reserva Particular do Patrimônio Natural;BA;2000;2000;Portaria 61 de 17/10/2000;CACHOEIRA (BA);257.0;0;0;0;257;0;0;0;Mata Atlântica;Uso Sustentável;-12.5994;-38.9587
0000.00.1409;RESERVA PARTICULAR DO PATRIMÔNIO NATURAL FAZENDA PANEMA;Federal;Reserva Particular do Patrimônio Natural;BA;2000;2000;Portaria 14/2000 de 01/03/2000;SÃO SEBASTIÃO DO PASSÉ (BA);213.0;0;0;0;213;0;0;0;Mata Atlântica;Uso Sustentável;-12.5123;-38.4905
0000.00.1410;RESERVA PARTICULAR DO PATRIMÔNIO NATURAL RESERVA NATURAL DA SERRA DO TEIMOSO;Federal;Reserva Particular do Patrimônio Natural;BA;1997;1997;Portaria 93/97-N de 15/08/1997;JUSSARI (BA);198.0;0;0;0;198;0;0;0;Mata Atlântica;Uso Sustentável;-15.192;-39.491
0000.00.1412;RESERVA PARTICULAR DO PATRIMÔNIO NATURAL SALTO APEPIQUE;Federal;Reserva Particular do Patrimônio Natural;BA;1997;1997;Portaria 103/97-N de 11/09/1997;ILHÉUS (BA);117.0;0;0;0;117;0;0;0;Mata Atlântica;Uso Sustentável;-14.793;-39.046
0000.00.1415;RESERVA PARTICULAR DO PATRIMÔNIO NATURAL ITACIRA;Federal;Reserva Particular do Patrimônio Natural;BA;1991;1991;Portaria 721 de 26/03/1991;ITAPEBI (BA);100.0;0;0;0;100;0;0;0;Mata Atlântica;Uso Sustentável;-15.9551;-39.5329
0000.00.1417;RESERVA PARTICULAR DO PATRIMÔNIO NATURAL ESTÂNCIA MANACÁ;Federal;Reserva Particular do Patrimônio Natural;BA;2000;2000;Portaria 36 de 15/06/2000;IBICARAÍ (BA);94.0;0;0;0;94;0;0;0;Mata Atlântica;Uso Sustentável;-14.8579;-39.5914
0000.00.1418;RESERVA PARTICULAR DO PATRIMÔNIO NATURAL FAZENDA COQUEIROS;Federal;Reserva Particular do Patrimônio Natural;BA;1990;1990;Portaria 2264/90 de 09/11/1990;SIMÕES FILHO (BA);87.0;0;0;0;87;0;0;0;Mata Atlântica;Uso Sustentável;-12.7866;-38.4029
0000.00.1425;RESERVA PARTICULAR DO PATRIMÔNIO NATURAL FAZENDA ARARAUNA;Federal;Reserva Particular do Patrimônio Natural;BA;2003;2003;Portaria 6 de 11/02/2003;UNA (BA);39.0;0;0;0;39;0;0;0;Mata Atlântica;Uso Sustentável;-15.2791;-39.0765
0000.00.1426;RESERVA PARTICULAR DO PATRIMÔNIO NATURAL LAGOA DO PEIXE;Federal;Reserva Particular do Patrimônio Natural;BA;2001;2001;Portaria 35/2001 de 02/03/2001;CARAVELAS (BA);31.0;0;0;0;31;0;0;0;Mata Atlântica;Uso Sustentável;-17.7268;-39.2597
0000.00.1427;RESERVA PARTICULAR DO PATRIMÔNIO NATURAL JUERANA;Federal;Reserva Particular do Patrimônio Natural;BA;2002;2002;Portaria 70/20002 de 02/05/2002;MARAÚ (BA);27.0;0;0;0;27;0;0;0;Mata Atlântica;Uso Sustentável;-14.1035;-39.0137
0000.00.1428;RESERVA PARTICULAR DO PATRIMÔNIO NATURAL FAZENDA PARAÍSO;Federal;Reserva Particular do Patrimônio Natural;BA;2000;2000;Portaria 26/2000 de 13/04/2000;URUÇUCA (BA);26.0;0;0;0;26;0;0;0;Mata Atlântica;Uso Sustentável;-14.5963;-39.2851
0000.00.1429;RESERVA PARTICULAR DO PATRIMÔNIO NATURAL FAZENDA SÃO JOÃO;Federal;Reserva Particular do Patrimônio Natural;BA;1997;1997;Portaria 022/97- N de 27/03/1997;ILHÉUS (BA);25.0;0;0;0;25;0;0;0;Mata Atlântica;Uso Sustentável;-14.793;-39.046
0000.00.1430;RESERVA PARTICULAR DO PATRIMÔNIO NATURAL PEDRA DO SABIÁ;Federal;Reserva Particular do Patrimônio Natural;BA;2001;2001;Portaria 155 de 24/10/2001;ITACARÉ (BA);22.0;0;0;0;22;0;0;0;Mata Atlântica;Uso Sustentável;-14.2784;-38.9959
0000.00.1432;RESERVA PARTICULAR DO PATRIMÔNIO NATURAL AGDA;Federal;Reserva Particular do Patrimônio Natural;BA;2001;2001;Portaria 169/2001 de 14/11/2001;POJUCA (BA);13.0;0;0;0;13;0;0;0;Mata Atlântica;Uso Sustentável;-12.4303;-38.3374
0000.00.1433;RESERVA PARTICULAR DO PATRIMÔNIO NATURAL MÃE DA MATA;Federal;Reserva Particular do Patrimônio Natural;BA;2004;2004;Portaria 32 de 09/03/2004;ILHÉUS (BA);13.0;0;0;0;13;0;0;0;Mata Atlântica;Uso Sustentável;-14.793;-39.046
0000.00.1434;RESERVA PARTICULAR DO PATRIMÔNIO NATURAL FAZENDA ARTE VERDE;Federal;Reserva Particular do Patrimônio Natural;BA;1998;1998;Portaria 114/98-N de 14/08/1998;ILHÉUS (BA);10.0;0;0;0;10;0;0;0;Mata Atlântica;Uso Sustentável;-14.793;-39.046
0000.00.1435;RESERVA PARTICULAR DO PATRIMÔNIO NATURAL DA MATA ATLÂNTICA DA MANONA;Federal;Reserva Particular do Patrimônio Natural;BA;2001;2001;Portaria 108 de 03/09/2001;PORTO SEGURO (BA);7.0;0;0;0;7;0;0;0;Mata Atlântica;Uso Sustentável;-16.4435;-39.0643
0000.00.1438;RESERVA PARTICULAR DO PATRIMÔNIO NATURAL FAZENDA SOSSEGO;Federal;Reserva Particular do Patrimônio Natural;BA;1999;1999;Portaria 13/99-N de 11/02/1999;URUÇUCA (BA);5.0;0;0;0;5;0;0;0;Mata Atlântica;Uso Sustentável;-14.5963;-39.2851
0000.00.1439;RESERVA PARTICULAR DO PATRIMÔNIO NATURAL RIO DOS MONOS;Federal;Reserva Particular do Patrimônio Natural;BA;2006;2006;Portaria 19/2006 de 09/03/2006;BARRA DO CHOÇA (BA);9.0;0;0;0;9;0;0;0;Mata Atlântica;Uso Sustentável;-14.8654;-40.5791
0000.00.1460;RESERVA PARTICULAR DO PATRIMÔNIO NATURAL RESERVA SANTA TEREZA;Federal;Reserva Particular do Patrimônio Natural;AL;2001;2001;Portaria 120 de 04/09/2001;ATALAIA (AL);99.0;0;0;0;99;0;0;0;Mata Atlântica;Uso Sustentável;-9.5119;-36.0086
0000.00.1461;RESERVA PARTICULAR DO PATRIMÔNIO NATURAL LULA LOBO I;Federal;Reserva Particular do Patrimônio Natural;AL;2001;2001;Portaria 111 de 04/09/2001;CORURIPE (AL);67.0;0;0;0;67;0;0;0;Mata Atlântica;Uso Sustentável;-10.1276;-36.1717
0000.00.1462;RESERVA PARTICULAR DO PATRIMÔNIO NATURAL FAZENDA SÃO PEDRO;Federal;Reserva Particular do Patrimônio Natural;AL;1995;1995;Portaria 12 de 08/02/1995;PILAR (AL);49.0;0;0;0;49;0;0;0;Mata Atlântica;Uso Sustentável;-9.60135;-35.9543
0000.00.1463;RESERVA PARTICULAR DO PATRIMÔNIO NATURAL RESERVA GULANDIM;Federal;Reserva Particular do Patrimônio Natural;AL;2001;2001;Portaria 98 de 03/09/2001;TEOTÔNIO VILELA (AL);40.0;0;0;0;40;0;0;0;Mata Atlântica;Uso Sustentável;-9.91656;-36.3492
0000.00.1464;RESERVA PARTICULAR DO PATRIMÔNIO NATURAL FAZENDA ROSA DO SOL;Federal;Reserva Particular do Patrimônio Natural;AL;1994;1994;Portaria 119-N de 03/11/1994;BARRA DE SÃO MIGUEL (AL);15.0;0;0;0;15;0;0;0;Mata Atlântica;Uso Sustentável;-9.83842;-35.9057
0000.00.2069;RESERVA PARTICULAR DO PATRIMÔNIO NATURAL ALIMERCINO GOMES CARVALHO;Federal;Reserva Particular do Patrimônio Natural;ES;2009;2009;Portaria 57/2009 de 22/07/2009;GUAÇUÍ (ES);6.0;0;0;0;6;0;0;0;Mata Atlântica;Uso Sustentável;-20.7668;-41.6734
0000.00.2070;RESERVA PARTICULAR DO PATRIMÔNIO NATURAL BOA UNIÃO;Federal;Reserva Particular do Patrimônio Natural;BA;2007;2007;Portaria 29/2007 de 11/04/2007;ILHÉUS (BA);113.0;0;0;0;113;0;0;0;Mata Atlântica;Uso Sustentável;-14.793;-39.046
0000.00.2071;RESERVA PARTICULAR DO PATRIMÔNIO NATURAL BOM SOSSEGO II;Federal;Reserva Particular do Patrimônio Natural;BA;2008;2008;Portaria 26 de 06/05/2008;PORTO SEGURO (BA);54.0;0;0;0;54;0;0;0;Mata Atlântica;Uso Sustentável;-16.4435;-39.0643
0000.00.2076;RESERVA PARTICULAR DO PATRIMÔNIO NATURAL CACHOEIRA ALTA;Federal;Reserva Particular do Patrimônio Natural;ES;2008;2008;Portaria 68/2008 de 09/09/2008;DIVINO DE SÃO LOURENÇO (ES);10.0;0;0;0;10;0;0;0;Mata Atlântica;Uso Sustentável;-20.6229;-41.6937
0000.00.2081;RESERVA PARTICULAR DO PATRIMÔNIO NATURAL CAPÃO REDONDO;Federal;Reserva Particular do Patrimônio Natural;SC;2005;2005;Portaria 84 de 30/11/2005;BALNEÁRIO ARROIO DO SILVA (SC);14.0;0;0;0;14;0;0;0;Mata Atlântica;Uso Sustentável;-28.9806;-49.4237
0000.00.2083;RESERVA PARTICULAR DO PATRIMÔNIO NATURAL CAVA II;Federal;Reserva Particular do Patrimônio Natural;SP;2005;2005;Portaria 40 de 20/06/2005;BARRETOS (SP);41.0;0;0;0;41;0;0;0;Mata Atlântica;Uso Sustentável;-20.5531;-48.5698
0000.00.2086;RESERVA PARTICULAR DO PATRIMÔNIO NATURAL CÓRREGO FLORESTA;Federal;Reserva Particular do Patrimônio Natural;ES;2008;2008;Portaria 91/2008 de 21/11/2008;AFONSO CLÁUDIO (ES);24.0;0;0;0;24;0;0;0;Mata Atlântica;Uso Sustentável;-20.0778;-41.1261
0000.00.2087;RESERVA PARTICULAR DO PATRIMÔNIO NATURAL CURIÓ;Federal;Reserva Particular do Patrimônio Natural;BA;2011;2011;Portaria 31 de 10/05/2011;SÃO SEBASTIÃO DO PASSÉ (BA);13.0;0;0;0;13;0;0;0;Mata Atlântica;Uso Sustentável;-12.5123;-38.4905
0000.00.2088;RESERVA PARTICULAR DO PATRIMÔNIO NATURAL CURUCACA 1;Federal;Reserva Particular do Patrimônio Natural;SC;2009;2009;Portaria 14 de 18/03/2009;BOM RETIRO (SC);32.0;0;0;0;32;0;0;0;Mata Atlântica;Uso Sustentável;-27.799;-49.487
0000.00.2089;RESERVA PARTICULAR DO PATRIMÔNIO NATURAL CURUCACA 2;Federal;Reserva Particular do Patrimônio Natural;SC;2009;2009;Portaria 12 de 18/03/2009;BOM RETIRO (SC);24.0;0;0;0;24;0;0;0;Mata Atlântica;Uso Sustentável;-27.799;-49.487
0000.00.2090;RESERVA PARTICULAR DO PATRIMÔNIO NATURAL CURUCACA 3;Federal;Reserva Particular do Patrimônio Natural;SC;2009;2009;Portaria 15 de 18/03/2009;BOM RETIRO (SC);78.0;0;0;0;78;0;0;0;Mata Atlântica;Uso Sustentável;-27.799;-49.487
0000.00.2091;RESERVA PARTICULAR DO PATRIMÔNIO NATURAL CURUCACA 4;Federal;Reserva Particular do Patrimônio Natural;SC;2008;2008;Portaria 25 de 06/05/2008;BOM RETIRO (SC);59.0;0;0;0;59;0;0;0;Mata Atlântica;Uso Sustentável;-27.799;-49.487
0000.00.2093;RESERVA PARTICULAR DO PATRIMÔNIO NATURAL DA UNISC;Federal;Reserva Particular do Patrimônio Natural;RS;2009;2009;Portaria 16/2009 de 18/03/2009;SINIMBU (RS);267.0;0;0;0;267;0;0;0;Mata Atlântica;Uso Sustentável;-29.5357;-52.5304
0000.00.2094;RESERVA PARTICULAR DO PATRIMÔNIO NATURAL DAS ARAUCÁRIAS GIGANTES;Federal;Reserva Particular do Patrimônio Natural;SC;2011;2011;Portaria 17 de 24/02/2011;ITAIÓPOLIS (SC);56.0;0;0;0;56;0;0;0;Mata Atlântica;Uso Sustentável;-26.339;-49.9092
0000.00.2099;RESERVA PARTICULAR DO PATRIMÔNIO NATURAL EMILIO EINSFELD FILHO;Federal;Reserva Particular do Patrimônio Natural;SC;2008;2008;Portaria 74 de 10/09/2008;CAMPO BELO DO SUL (SC) - CAPÃO ALTO (SC);6334.0;0;0;0;6334;0;0;0;Mata Atlântica;Uso Sustentável;-27.9182;-50.63465
0000.00.2104;RESERVA PARTICULAR DO PATRIMÔNIO NATURAL FAZENDA BONSUCESSO;Federal;Reserva Particular do Patrimônio Natural;RJ;2008;2008;Portaria 98 de 12/12/2008;BARRA MANSA (RJ);231.0;0;0;0;231;0;0;0;Mata Atlântica;Uso Sustentável;-22.5481;-44.1752
0000.00.2107;RESERVA PARTICULAR DO PATRIMÔNIO NATURAL FAZENDA DO TANGUÁ;Federal;Reserva Particular do Patrimônio Natural;RJ;2008;2008;Portaria 72 de 09/09/2008;ANGRA DOS REIS (RJ);118.0;0;0;0;118;0;0;0;Mata Atlântica;Uso Sustentável;-23.0011;-44.3196
0000.00.2109;RESERVA PARTICULAR DO PATRIMÔNIO NATURAL FAZENDA MORRO DE SAPUCAIA;Federal;Reserva Particular do Patrimônio Natural;RS;2002;2002;Portaria 94/2002 de 06/08/2002;SAPUCAIA DO SUL (RS);89.0;0;0;0;89;0;0;0;Mata Atlântica;Uso Sustentável;-29.8276;-51.145
0000.00.2110;RESERVA PARTICULAR DO PATRIMÔNIO NATURAL FAZENDA PINDORAMA;Federal;Reserva Particular do Patrimônio Natural;GO;1997;1997;Portaria 165-N/1997 de 23/12/1997;CRISTALINA (GO);47.0;0;0;0;47;0;0;0;Mata Atlântica;Uso Sustentável;-16.7676;-47.6131
0000.00.2111;RESERVA PARTICULAR DO PATRIMÔNIO NATURAL FAZENDA PRIMAVERA;Federal;Reserva Particular do Patrimônio Natural;PR;1997;1997;Portaria 083/97-N de 31/07/1997;TIBAGI (PR);400.0;0;0;0;400;0;0;0;Mata Atlântica;Uso Sustentável;-24.5153;-50.4176
0000.00.2112;RESERVA PARTICULAR DO PATRIMÔNIO NATURAL FAZENDA SANTA TEREZINHA;Federal;Reserva Particular do Patrimônio Natural;SC;2009;2009;Portaria 19 de 26/03/2009;ÁGUA DOCE (SC);60.0;0;0;0;60;0;0;0;Mata Atlântica;Uso Sustentável;-26.9985;-51.5528
0000.00.2115;RESERVA PARTICULAR DO PATRIMÔNIO NATURAL FLOR DO NORTE I;Federal;Reserva Particular do Patrimônio Natural;BA;2010;2010;Portaria 03/2010 de 15/01/2010;PRADO (BA);304.0;0;0;0;304;0;0;0;Mata Atlântica;Uso Sustentável;-17.3364;-39.2227
0000.00.2116;RESERVA PARTICULAR DO PATRIMÔNIO NATURAL FLOR DO NORTE II;Federal;Reserva Particular do Patrimônio Natural;BA;2010;2010;Portaria 04/2010 de 15/01/2010;PRADO (BA);171.0;0;0;0;171;0;0;0;Mata Atlântica;Uso Sustentável;-17.3364;-39.2227
0000.00.2117;RESERVA PARTICULAR DO PATRIMÔNIO NATURAL GRUTINHA;Federal;Reserva Particular do Patrimônio Natural;SC;2009;2009;Portaria 05/2009 de 12/02/2009;NOVA TRENTO (SC);6.0;0;0;0;6;0;0;0;Mata Atlântica;Uso Sustentável;-27.278;-48.9298
0000.00.2118;RESERVA PARTICULAR DO PATRIMÔNIO NATURAL GUARIRÚ;Federal;Reserva Particular do Patrimônio Natural;BA;2009;2009;Portaria 74/2009 de 03/09/2009;VARZEDO (BA);41.0;0;0;0;41;0;0;0;Mata Atlântica;Uso Sustentável;-12.9672;-39.3919
0000.00.2119;RESERVA PARTICULAR DO PATRIMÔNIO NATURAL HELICO;Federal;Reserva Particular do Patrimônio Natural;BA;2007;2007;Portaria 09/2007 de 18/01/2007;ILHÉUS (BA);63.0;0;0;0;63;0;0;0;Mata Atlântica;Uso Sustentável;-14.793;-39.046
0000.00.2122;RESERVA PARTICULAR DO PATRIMÔNIO NATURAL INHOTIM;Federal;Reserva Particular do Patrimônio Natural;MG;2014;2014;Portaria 85 de 28/07/2014;BRUMADINHO (MG);145.0;0;0;0;145;0;0;0;Mata Atlântica;Uso Sustentável;-20.151;-44.2007
0000.00.2124;RESERVA PARTICULAR DO PATRIMÔNIO NATURAL JACUBA VELHA;Federal;Reserva Particular do Patrimônio Natural;BA;2008;2008;Portaria 71/2008 de 09/09/2008;PORTO SEGURO (BA);84.0;0;0;0;84;0;0;0;Mata Atlântica;Uso Sustentável;-16.4435;-39.0643
0000.00.2130;RESERVA PARTICULAR DO PATRIMÔNIO NATURAL LEMKE;Federal;Reserva Particular do Patrimônio Natural;ES;2010;2010;Portaria 75 de 27/08/2010;NOVA VENÉCIA (ES);2.0;0;0;0;2;0;0;0;Mata Atlântica;Uso Sustentável;-18.715;-40.4053
0000.00.2133;RESERVA PARTICULAR DO PATRIMÔNIO NATURAL MARIE CAMILLE;Federal;Reserva Particular do Patrimônio Natural;RJ;2009;2009;Portaria 13 de 18/03/2009;BOM JARDIM (RJ);4.0;0;0;0;4;0;0;0;Mata Atlântica;Uso Sustentável;-22.1545;-42.4251
0000.00.2134;RESERVA PARTICULAR DO PATRIMÔNIO NATURAL MATA 01 (BOM JARDIM) E MATA 02,03 E 04 (TAPERA);Federal;Reserva Particular do Patrimônio Natural;SE;2006;2006;Portaria 102 de 19/12/2006;SANTA LUZIA DO ITANHY (SE);297.0;0;0;0;297;0;0;0;Mata Atlântica;Uso Sustentável;-11.3536;-37.4586
0000.00.2135;RESERVA PARTICULAR DO PATRIMÔNIO NATURAL MATA 01 E 02 (MARINHEIRO) E MATA 03 (PEDRA DA URÇA);Federal;Reserva Particular do Patrimônio Natural;SE;2007;2007;Portaria 04/2007 de 10/01/2007;SANTA LUZIA DO ITANHY (SE);174.0;0;0;0;174;0;0;0;Mata Atlântica;Uso Sustentável;-11.3536;-37.4586
0000.00.2136;RESERVA PARTICULAR DO PATRIMÔNIO NATURAL MATA DA SERRA;Federal;Reserva Particular do Patrimônio Natural;ES;2008;2009;Portaria 105/2008 de 30/12/2008;VARGEM ALTA (ES);15.0;0;0;0;15;0;0;0;Mata Atlântica;Uso Sustentável;-20.669;-41.0179
0000.00.2137;RESERVA PARTICULAR DO PATRIMÔNIO NATURAL MATA DO PROFESSOR BAPTISTA;Federal;Reserva Particular do Patrimônio Natural;RS;2009;2009;Portaria 52/2009 de 29/06/2009;DOM PEDRO DE ALCÂNTARA (RS);9.0;0;0;0;9;0;0;0;Mata Atlântica;Uso Sustentável;-29.3639;-49.853
0000.00.2138;RESERVA PARTICULAR DO PATRIMÔNIO NATURAL MATA DOS JACUS - RESGATE VI;Federal;Reserva Particular do Patrimônio Natural;MG;2010;2010;Portaria 32/2010 de 24/03/2010;ALTO JEQUITIBÁ (MG);21.0;0;0;0;21;0;0;0;Mata Atlântica;Uso Sustentável;-20.4208;-41.967
0000.00.2142;RESERVA PARTICULAR DO PATRIMÔNIO NATURAL NOSSA SENHORA APARECIDA;Federal;Reserva Particular do Patrimônio Natural;RJ;2008;2008;Portaria 15 de 18/03/2008;BOM JARDIM (RJ);9.0;0;0;0;9;0;0;0;Mata Atlântica;Uso Sustentável;-22.1545;-42.4251
0000.00.2143;RESERVA PARTICULAR DO PATRIMÔNIO NATURAL NOSSA SENHORA APARECIDA;Federal;Reserva Particular do Patrimônio Natural;RJ;2008;2008;Portaria 70 de 09/09/2008;DUAS BARRAS (RJ);59.0;0;0;0;59;0;0;0;Mata Atlântica;Uso Sustentável;-22.0536;-42.5232
0000.00.2144;RESERVA PARTICULAR DO PATRIMÔNIO NATURAL NOSSA SENHORA APARECIDA;Federal;Reserva Particular do Patrimônio Natural;RJ;2008;2008;Portaria 7 de 01/02/2008;SAPUCAIA (RJ);7.0;0;0;0;7;0;0;0;Mata Atlântica;Uso Sustentável;-21.9949;-42.9142
0000.00.2145;RESERVA PARTICULAR DO PATRIMÔNIO NATURAL OLHO-DE-FOGO-RENDADO;Federal;Reserva Particular do Patrimônio Natural;BA;2011;2011;Portaria 28 de 10/05/2011;SÃO SEBASTIÃO DO PASSÉ (BA);104.0;0;0;0;104;0;0;0;Mata Atlântica;Uso Sustentável;-12.5123;-38.4905
0000.00.2148;RESERVA PARTICULAR DO PATRIMÔNIO NATURAL PARQUE DAS NASCENTES;Federal;Reserva Particular do Patrimônio Natural;SP;2002;2002;Portaria 58 de 18/04/2002;BRAGANÇA PAULISTA (SP);69.0;0;0;0;69;0;0;0;Mata Atlântica;Uso Sustentável;-22.9527;-46.5419
0000.00.2151;RESERVA PARTICULAR DO PATRIMÔNIO NATURAL PEDRA DA ÁGUIA;Federal;Reserva Particular do Patrimônio Natural;SC;2009;2009;Portaria 23 de 24/04/2009;URUBICI (SC);91.0;0;0;0;91;0;0;0;Mata Atlântica;Uso Sustentável;-28.0157;-49.5925
0000.00.2152;RESERVA PARTICULAR DO PATRIMÔNIO NATURAL PERNA DO PIRATA;Federal;Reserva Particular do Patrimônio Natural;PR;2010;2010;Portaria 53 de 12/07/2010;MORRETES (PR);19.0;0;0;0;19;0;0;0;Mata Atlântica;Uso Sustentável;-25.4744;-48.8345
0000.00.2153;RESERVA PARTICULAR DO PATRIMÔNIO NATURAL PORTAL CURUPIRA;Federal;Reserva Particular do Patrimônio Natural;BA;2001;2001;Portaria 106/2001 de 03/09/2001;PORTO SEGURO (BA);49.0;0;0;0;49;0;0;0;Mata Atlântica;Uso Sustentável;-16.4435;-39.0643
0000.00.2154;RESERVA PARTICULAR DO PATRIMÔNIO NATURAL PORTAL DAS NASCENTES;Federal;Reserva Particular do Patrimônio Natural;SC;2010;2010;Portaria 9 de 27/01/2010;URUBICI (SC);16.0;0;0;0;16;0;0;0;Mata Atlântica;Uso Sustentável;-28.0157;-49.5925
0000.00.2155;RESERVA PARTICULAR DO PATRIMÔNIO NATURAL PORTO FRANCO;Federal;Reserva Particular do Patrimônio Natural;SC;2010;2010;Portaria 73 de 27/08/2010;BOTUVERÁ (SC);45.0;0;0;0;45;0;0;0;Mata Atlântica;Uso Sustentável;-27.2007;-49.0689
0000.00.2156;RESERVA PARTICULAR DO PATRIMÔNIO NATURAL PRATI;Federal;Reserva Particular do Patrimônio Natural;ES;2010;2010;Portaria 49/2010 de 30/06/2010;NOVA VENÉCIA (ES);3.0;0;0;0;3;0;0;0;Mata Atlântica;Uso Sustentável;-18.715;-40.4053
0000.00.2157;RESERVA PARTICULAR DO PATRIMÔNIO NATURAL PRIMAVERA;Federal;Reserva Particular do Patrimônio Natural;BA;2008;2008;Portaria 76/2008 de 10/09/2008;PRADO (BA);498.0;0;0;0;498;0;0;0;Mata Atlântica;Uso Sustentável;-17.3364;-39.2227
0000.00.2160;RESERVA PARTICULAR DO PATRIMÔNIO NATURAL REFÚGIO DO MACUCO;Federal;Reserva Particular do Patrimônio Natural;SC;2010;2010;Portaria 60 de 27/07/2010;ITAIÓPOLIS (SC);32.0;0;0;0;32;0;0;0;Mata Atlântica;Uso Sustentável;-26.339;-49.9092
0000.00.2163;RESERVA PARTICULAR DO PATRIMÔNIO NATURAL RESERVA CÓRREGO VERMELHO;Federal;Reserva Particular do Patrimônio Natural;RJ;2007;2007;Portaria 23 de 10/12/2007;TRAJANO DE MORAES (RJ);21.0;0;0;0;21;0;0;0;Mata Atlântica;Uso Sustentável;-22.0638;-42.0643
0000.00.2164;RESERVA PARTICULAR DO PATRIMÔNIO NATURAL RESERVA DO SOSSEGO I;Federal;Reserva Particular do Patrimônio Natural;RJ;2007;2007;Portaria 35 de 19/04/2007;NOVA FRIBURGO (RJ);1.0;0;0;0;1;0;0;0;Mata Atlântica;Uso Sustentável;-22.2932;-42.5377
0000.00.2165;RESERVA PARTICULAR DO PATRIMÔNIO NATURAL RESERVA DO SOSSEGO II;Federal;Reserva Particular do Patrimônio Natural;RJ;2007;2007;Portaria 36 de 19/04/2007;NOVA FRIBURGO (RJ);1.0;0;0;0;1;0;0;0;Mata Atlântica;Uso Sustentável;-22.2932;-42.5377
0000.00.2177;RESERVA PARTICULAR DO PATRIMÔNIO NATURAL RESERVA FLORESTAL ENGENHEIRO JOÃO FURTADO DE MENDONÇA;Federal;Reserva Particular do Patrimônio Natural;RJ;2008;2008;Portaria 9 de 01/02/2008;NATIVIDADE (RJ);78.0;0;0;0;78;0;0;0;Mata Atlântica;Uso Sustentável;-21.039;-41.9697
0000.00.2180;RESERVA PARTICULAR DO PATRIMÔNIO NATURAL RESERVA LEÃO DA MONTANHA;Federal;Reserva Particular do Patrimônio Natural;SC;2008;2008;Portaria 34 de 21/05/2008;URUBICI (SC);154.0;0;0;0;154;0;0;0;Mata Atlântica;Uso Sustentável;-28.0157;-49.5925
0000.00.2182;RESERVA PARTICULAR DO PATRIMÔNIO NATURAL RESERVA MARIA VICENTINI LOPES;Federal;Reserva Particular do Patrimônio Natural;BA;2008;2008;Portaria 69 de 09/09/2008;BELMONTE (BA);392.0;0;0;0;392;0;0;0;Mata Atlântica;Uso Sustentável;-15.8608;-38.8758
0000.00.2187;RESERVA PARTICULAR DO PATRIMÔNIO NATURAL RESERVA SÃO JOSÉ;Federal;Reserva Particular do Patrimônio Natural;BA;2008;2008;Portaria 04/2008 de 01/02/2008;ILHÉUS (BA);77.0;0;0;0;77;0;0;0;Mata Atlântica;Uso Sustentável;-14.793;-39.046
0000.00.2188;RESERVA PARTICULAR DO PATRIMÔNIO NATURAL RESERVA SERRA DO CARAMANDU;Federal;Reserva Particular do Patrimônio Natural;RJ;2008;2008;Portaria 21 de 05/05/2008;SUMIDOURO (RJ);35.0;0;0;0;35;0;0;0;Mata Atlântica;Uso Sustentável;-22.0485;-42.6761
0000.00.2190;RESERVA PARTICULAR DO PATRIMÔNIO NATURAL RESERVA TERRAVISTA I;Federal;Reserva Particular do Patrimônio Natural;BA;2009;2009;Portaria 27/2009 de 14/05/2009;PORTO SEGURO (BA);228.0;0;0;0;228;0;0;0;Mata Atlântica;Uso Sustentável;-16.4435;-39.0643
0000.00.2191;RESERVA PARTICULAR DO PATRIMÔNIO NATURAL RESERVA TERRAVISTA II;Federal;Reserva Particular do Patrimônio Natural;BA;2009;2009;Portaria 28/2009 de 14/05/2009;PORTO SEGURO (BA);144.0;0;0;0;144;0;0;0;Mata Atlântica;Uso Sustentável;-16.4435;-39.0643
0000.00.2193;RESERVA PARTICULAR DO PATRIMÔNIO NATURAL RETIRO TUN;Federal;Reserva Particular do Patrimônio Natural;SC;2009;2009;Portaria 44 de 04/06/2009;RANCHO QUEIMADO (SC);5.0;0;0;0;5;0;0;0;Mata Atlântica;Uso Sustentável;-27.6727;-49.0191
0000.00.2197;RESERVA PARTICULAR DO PATRIMÔNIO NATURAL RIO DO BRASIL II;Federal;Reserva Particular do Patrimônio Natural;BA;2008;2008;Portaria 87/2008 de 20/11/2008;PORTO SEGURO (BA);401.0;0;0;0;401;0;0;0;Mata Atlântica;Uso Sustentável;-16.4435;-39.0643
0000.00.2198;RESERVA PARTICULAR DO PATRIMÔNIO NATURAL RIO DO BRASIL III;Federal;Reserva Particular do Patrimônio Natural;BA;2008;2008;Portaria 88/2008 de 20/11/2008;PORTO SEGURO (BA);357.0;0;0;0;357;0;0;0;Mata Atlântica;Uso Sustentável;-16.4435;-39.0643
0000.00.2199;RESERVA PARTICULAR DO PATRIMÔNIO NATURAL RIO DO BRASIL IV;Federal;Reserva Particular do Patrimônio Natural;BA;2008;2008;Portaria 89/2008 de 20/11/2008;PORTO SEGURO (BA);75.0;0;0;0;75;0;0;0;Mata Atlântica;Uso Sustentável;-16.4435;-39.0643
0000.00.2200;RESERVA PARTICULAR DO PATRIMÔNIO NATURAL RIO DO BRASIL V;Federal;Reserva Particular do Patrimônio Natural;BA;2008;2008;Portaria 90/2008 de 20/11/2008;PORTO SEGURO (BA);54.0;0;0;0;54;0;0;0;Mata Atlântica;Uso Sustentável;-16.4435;-39.0643
0000.00.2201;RESERVA PARTICULAR DO PATRIMÔNIO NATURAL  RIO DOS PILÕES;Federal;Reserva Particular do Patrimônio Natural;SP;1999;1999;Portaria 84/99-N de 05/10/1999;SANTA ISABEL (SP);385.0;0;0;0;385;0;0;0;Mata Atlântica;Uso Sustentável;-23.3172;-46.2237
0000.00.2204;RESERVA PARTICULAR DO PATRIMÔNIO NATURAL RONCO DO BUGIO;Federal;Reserva Particular do Patrimônio Natural;RS;2009;2009;Portaria 06/2009 de 12/02/2009;VENÂNCIO AIRES (RS);23.0;0;0;0;23;0;0;0;Mata Atlântica;Uso Sustentável;-29.6143;-52.1932
0000.00.2206;RESERVA PARTICULAR DO PATRIMÔNIO NATURAL SANTA DULCE DE CIMA;Federal;Reserva Particular do Patrimônio Natural;RJ;2007;2007;Portaria 26 de 10/12/2007;TRAJANO DE MORAES (RJ);92.0;0;0;0;92;0;0;0;Mata Atlântica;Uso Sustentável;-22.0638;-42.0643
0000.00.2207;RESERVA PARTICULAR DO PATRIMÔNIO NATURAL SANTA MARIA I;Federal;Reserva Particular do Patrimônio Natural;BA;2008;2008;Portaria 96/2008 de 12/12/2008;PRADO (BA);97.0;0;0;0;97;0;0;0;Mata Atlântica;Uso Sustentável;-17.3364;-39.2227
0000.00.2208;RESERVA PARTICULAR DO PATRIMÔNIO NATURAL SANTA MARIA II;Federal;Reserva Particular do Patrimônio Natural;BA;2008;2008;Portaria 97/2008 de 12/12/2008;PRADO (BA);159.0;0;0;0;159;0;0;0;Mata Atlântica;Uso Sustentável;-17.3364;-39.2227
0000.00.2209;RESERVA PARTICULAR DO PATRIMÔNIO NATURAL SANTA MARIA III;Federal;Reserva Particular do Patrimônio Natural;BA;2008;2008;Portaria 104/2008 de 30/12/2008;PRADO (BA);160.0;0;0;0;160;0;0;0;Mata Atlântica;Uso Sustentável;-17.3364;-39.2227
0000.00.2211;RESERVA PARTICULAR DO PATRIMÔNIO NATURAL SANTUÁRIO RÃ-BUGIO II;Federal;Reserva Particular do Patrimônio Natural;SC;2008;2008;Portaria 16 de 18/03/2008;GUARAMIRIM (SC);3.0;0;0;0;3;0;0;0;Mata Atlântica;Uso Sustentável;-26.4688;-49.0026
0000.00.2213;RESERVA PARTICULAR DO PATRIMÔNIO NATURAL SERRA DO CONTENTE;Federal;Reserva Particular do Patrimônio Natural;PE;2009;2009;Portaria 68 de 13/08/2009;GRAVATÁ (PE);9.0;0;0;0;9;0;0;0;Mata Atlântica;Uso Sustentável;-8.21118;-35.5675
0000.00.2214;RESERVA PARTICULAR DO PATRIMÔNIO NATURAL SERRA DO LUCINDO;Federal;Reserva Particular do Patrimônio Natural;SC;2010;2010;Portaria 72 de 27/08/2010;BELA VISTA DO TOLDO (SC);317.0;0;0;0;317;0;0;0;Mata Atlântica;Uso Sustentável;-26.2746;-50.4664
0000.00.2217;RESERVA PARTICULAR DO PATRIMÔNIO NATURAL TAIPA DO RIO ITAJAÍ;Federal;Reserva Particular do Patrimônio Natural;SC;2009;2009;Portaria 75 de 03/09/2009;ITAIÓPOLIS (SC);23.0;0;0;0;23;0;0;0;Mata Atlântica;Uso Sustentável;-26.339;-49.9092
0000.00.2218;RESERVA PARTICULAR DO PATRIMÔNIO NATURAL TAIPA RIO DO COURO;Federal;Reserva Particular do Patrimônio Natural;SC;2010;2010;Portaria 56 de 26/07/2010;ITAIÓPOLIS (SC);36.0;0;0;0;36;0;0;0;Mata Atlântica;Uso Sustentável;-26.339;-49.9092
0000.00.2219;RESERVA PARTICULAR DO PATRIMÔNIO NATURAL TAYNÁ;Federal;Reserva Particular do Patrimônio Natural;PR;2009;2009;Portaria 92/2009 de 28/12/2009;PONTA GROSSA (PR);16.0;0;0;0;16;0;0;0;Mata Atlântica;Uso Sustentável;-25.0916;-50.1668
0000.00.2223;RESERVA PARTICULAR DO PATRIMÔNIO NATURAL TRIÂNGULO;Federal;Reserva Particular do Patrimônio Natural;BA;2008;2008;Portaria 73/2008 de 09/09/2008;PRADO (BA);57.0;0;0;0;57;0;0;0;Mata Atlântica;Uso Sustentável;-17.3364;-39.2227
0000.00.2224;RESERVA PARTICULAR DO PATRIMÔNIO NATURAL TRILHA COROADOS - FB;Federal;Reserva Particular do Patrimônio Natural;SP;2006;2006;Portaria 78 de 09/10/2006;PRESIDENTE ALVES (SP);52.0;0;0;0;52;0;0;0;Mata Atlântica;Uso Sustentável;-22.0999;-49.4381
0000.00.2225;RESERVA PARTICULAR DO PATRIMÔNIO NATURAL TUIM;Federal;Reserva Particular do Patrimônio Natural;BA;2009;2009;Portaria 66/2009 de 12/08/2009;ITUBERÁ (BA);96.0;0;0;0;96;0;0;0;Mata Atlântica;Uso Sustentável;-13.7249;-39.1481
0000.00.2226;RESERVA PARTICULAR DO PATRIMÔNIO NATURAL USINA MAURICIO;Federal;Reserva Particular do Patrimônio Natural;MG;1999;1999;Portaria 63/99-N de 19/07/1999;ITAMARATI DE MINAS (MG);302.0;0;0;0;302;0;0;0;Mata Atlântica;Uso Sustentável;-21.4179;-42.813
0000.00.2227;RESERVA PARTICULAR DO PATRIMÔNIO NATURAL VALE DAS ARAPONGAS - RESGATE II;Federal;Reserva Particular do Patrimônio Natural;MG;2010;2010;Portaria 36/2010 de 31/03/2010;ALTO JEQUITIBÁ (MG);39.0;0;0;0;39;0;0;0;Mata Atlântica;Uso Sustentável;-20.4208;-41.967
0000.00.2229;RESERVA PARTICULAR DO PATRIMÔNIO NATURAL VALE DAS PEDRAS;Federal;Reserva Particular do Patrimônio Natural;SC;2008;2008;Portaria 92 de 20/11/2008;ALFREDO WAGNER (SC);33.0;0;0;0;33;0;0;0;Mata Atlântica;Uso Sustentável;-27.7001;-49.3273
0000.00.2231;RESERVA PARTICULAR DO PATRIMÔNIO NATURAL VALE DO LUAR;Federal;Reserva Particular do Patrimônio Natural;RJ;2009;2009;Portaria 50 de 15/06/2009;BOM JARDIM (RJ);23.0;0;0;0;23;0;0;0;Mata Atlântica;Uso Sustentável;-22.1545;-42.4251
0000.00.2235;RESERVA PARTICULAR DO PATRIMÔNIO NATURAL VILLA SÃO ROMÃO;Federal;Reserva Particular do Patrimônio Natural;RJ;2009;2009;Portaria 73 de 03/09/2009;NOVA FRIBURGO (RJ);54.0;0;0;0;54;0;0;0;Mata Atlântica;Uso Sustentável;-22.2932;-42.5377
0000.00.2236;RESERVA PARTICULAR DO PATRIMÔNIO NATURAL VISTA BONITA;Federal;Reserva Particular do Patrimônio Natural;SP;2004;2004;Portaria 38 de 09/03/2004;SANDOVALINA (SP);1062.0;0;0;0;1062;0;0;0;Mata Atlântica;Uso Sustentável;-22.4551;-51.7648
0000.00.2237;RESERVA PARTICULAR DO PATRIMÔNIO NATURAL VOTURUNA;Federal;Reserva Particular do Patrimônio Natural;SP;1994;1994;Portaria 105-N de 04/10/1994;SANTANA DE PARNAÍBA (SP);58.0;0;0;0;58;0;0;0;Mata Atlântica;Uso Sustentável;-23.4439;-46.9178
0000.00.2310;RESERVA PARTICULAR DO PATRIMÔNIO NATURAL FAZENDA BARRA DO SANA;Federal;Reserva Particular do Patrimônio Natural;RJ;1999;1999;Portaria 65-N de 28/07/1999;MACAÉ (RJ);162.0;0;0;0;162;0;0;0;Mata Atlântica;Uso Sustentável;-22.3768;-41.7848
0000.00.2685;RESERVA PARTICULAR DO PATRIMÔNIO NATURAL ALTO DA MANTIQUEIRA;Federal;Reserva Particular do Patrimônio Natural;MG;2011;2011;Portaria 106 de 22/12/2011;DELFIM MOREIRA (MG);20.0;0;0;0;20;0;0;0;Mata Atlântica;Uso Sustentável;-22.5036;-45.2792
0000.00.2702;RESERVA PARTICULAR DO PATRIMÔNIO NATURAL GRACIOSA;Federal;Reserva Particular do Patrimônio Natural;PR;2011;2011;Portaria 89 de 10/11/2011;MORRETES (PR);17.0;0;0;0;17;0;0;0;Mata Atlântica;Uso Sustentável;-25.4744;-48.8345
0000.00.2705;RESERVA PARTICULAR DO PATRIMÔNIO NATURAL MORRO GRANDE;Federal;Reserva Particular do Patrimônio Natural;RJ;2011;2011;Portaria 27 de 10/05/2011;CASIMIRO DE ABREU (RJ);191.0;0;0;0;191;0;0;0;Mata Atlântica;Uso Sustentável;-22.4812;-42.2066
0000.00.2707;RESERVA PARTICULAR DO PATRIMÔNIO NATURAL MICO LEÃO DOURADO;Federal;Reserva Particular do Patrimônio Natural;RJ;2011;2011;Portaria 26 de 10/05/2011;SILVA JARDIM (RJ);22.0;0;0;0;22;0;0;0;Mata Atlântica;Uso Sustentável;-22.6574;-42.3961
0000.00.2714;RESERVA PARTICULAR DO PATRIMÔNIO NATURAL RASO DO MANDI;Federal;Reserva Particular do Patrimônio Natural;SC;2012;2012;Portaria 77 de 25/06/2012;ITAIÓPOLIS (SC);54.0;0;0;0;54;0;0;0;Mata Atlântica;Uso Sustentável;-26.339;-49.9092
0000.00.2715;RESERVA PARTICULAR DO PATRIMÔNIO NATURAL CORREDEIRAS DO RIO ITAJAI II;Federal;Reserva Particular do Patrimônio Natural;SC;2012;2012;Portaria 78 de 04/07/2012;ITAIÓPOLIS (SC);79.0;0;0;0;79;0;0;0;Mata Atlântica;Uso Sustentável;-26.339;-49.9092
0000.00.2716;RESERVA PARTICULAR DO PATRIMÔNIO NATURAL PASSARIM II;Federal;Reserva Particular do Patrimônio Natural;SC;2012;2012;Portaria 6 de 12/01/2012;PAULO LOPES (SC);67.0;0;0;0;67;0;0;0;Mata Atlântica;Uso Sustentável;-27.9607;-48.6864
0000.00.2739;RESERVA PARTICULAR DO PATRIMÔNIO NATURAL PORTAL DAS NASCENTES II;Federal;Reserva Particular do Patrimônio Natural;SC;2011;2011;Portaria 90 de 10/11/2011;URUBICI (SC);4.0;0;0;0;4;0;0;0;Mata Atlântica;Uso Sustentável;-28.0157;-49.5925
0000.00.2740;RESERVA PARTICULAR DO PATRIMÔNIO NATURAL LAGOA ENCANTADA DO MORRO DA LUCRÉCIA;Federal;Reserva Particular do Patrimônio Natural;SE;2011;2011;Portaria 92 de 18/11/2011;PIRAMBU (SE);11.0;0;0;0;11;0;0;0;Mata Atlântica;Uso Sustentável;-10.7215;-36.8544
0000.00.2741;RESERVA PARTICULAR DO PATRIMÔNIO NATURAL CRUZ PRETA;Federal;Reserva Particular do Patrimônio Natural;SP;2012;2012;Portaria 29 de 17/02/2012;IBIÚNA (SP);157.0;0;0;0;157;0;0;0;Mata Atlântica;Uso Sustentável;-23.6596;-47.223
0000.00.3066;RESERVA PARTICULAR DO PATRIMÔNIO NATURAL MATA DO GUIGO;Federal;Reserva Particular do Patrimônio Natural;BA;2014;2014;Portaria 70 de 25/06/2014;CATU (BA);37.0;0;0;0;37;0;0;0;Mata Atlântica;Uso Sustentável;-12.3513;-38.3791
0000.00.3067;RESERVA PARTICULAR DO PATRIMÔNIO NATURAL GUANANDI;Federal;Reserva Particular do Patrimônio Natural;BA;2012;2012;Portaria 76 de 25/06/2012;ILHÉUS (BA);15.0;0;0;0;15;0;0;0;Mata Atlântica;Uso Sustentável;-14.793;-39.046
0000.00.3068;RESERVA PARTICULAR DO PATRIMÔNIO NATURAL RIO DA BARRA;Federal;Reserva Particular do Patrimônio Natural;BA;2011;2011;Portaria 81 de 14/10/2011;PORTO SEGURO (BA);144.0;0;0;0;144;0;0;0;Mata Atlântica;Uso Sustentável;-16.4435;-39.0643
0000.00.3076;RESERVA PARTICULAR DO PATRIMÔNIO NATURAL CANTO DO SENHOR;Federal;Reserva Particular do Patrimônio Natural;BA;2012;2012;Portaria 114 de 24/10/2012;URUÇUCA (BA);8.0;0;0;0;8;0;0;0;Mata Atlântica;Uso Sustentável;-14.5963;-39.2851
0000.00.3089;RESERVA PARTICULAR DO PATRIMÔNIO NATURAL ALTO DA BOA VISTA - RESGATE VIII;Federal;Reserva Particular do Patrimônio Natural;RJ;2012;2012;Portaria 97 de 05/09/2012;NOVA FRIBURGO (RJ);30.0;0;0;0;30;0;0;0;Mata Atlântica;Uso Sustentável;-22.2932;-42.5377
0000.00.3094;RESERVA PARTICULAR DO PATRIMÔNIO NATURAL ÁGUAS CLARAS;Federal;Reserva Particular do Patrimônio Natural;SP;2013;2013;Portaria 22 de 24/09/2013;SÃO LUIZ DO PARAITINGA (SP);14.0;0;0;0;14;0;0;0;Mata Atlântica;Uso Sustentável;-23.222;-45.3109
0000.00.3098;RESERVA PARTICULAR DO PATRIMÔNIO NATURAL AMPLUS LUCIDUS;Federal;Reserva Particular do Patrimônio Natural;SC;2013;2013;Portaria 218 de 07/08/2013;ÁGUAS MORNAS (SC);14.0;0;0;0;14;0;0;0;Mata Atlântica;Uso Sustentável;-27.6963;-48.8243
0000.00.3099;RESERVA PARTICULAR DO PATRIMÔNIO NATURAL RESERVA RIO DAS FURNAS II;Federal;Reserva Particular do Patrimônio Natural;SC;2013;2013;Portaria 168 de 08/03/2013;ALFREDO WAGNER (SC);44.0;0;0;0;44;0;0;0;Mata Atlântica;Uso Sustentável;-27.7001;-49.3273
0000.00.3100;RESERVA PARTICULAR DO PATRIMÔNIO NATURAL CANTO DA ARAPONGA;Federal;Reserva Particular do Patrimônio Natural;SC;2013;2013;Portaria 149 de 19/02/2013;BOM RETIRO (SC);45.0;0;0;0;45;0;0;0;Mata Atlântica;Uso Sustentável;-27.799;-49.487
0000.00.3101;RESERVA PARTICULAR DO PATRIMÔNIO NATURAL ODIR ZANELATTO;Federal;Reserva Particular do Patrimônio Natural;SC;2012;2012;Portaria 103 de 12/09/2012;ITAIÓPOLIS (SC);212.0;0;0;0;212;0;0;0;Mata Atlântica;Uso Sustentável;-26.339;-49.9092
0000.00.3102;RESERVA PARTICULAR DO PATRIMÔNIO NATURAL PORTAL ÁGUA BRANCA;Federal;Reserva Particular do Patrimônio Natural;SC;2012;2012;Portaria 98 de 05/09/2012;URUBICI (SC);201.0;0;0;0;201;0;0;0;Mata Atlântica;Uso Sustentável;-28.0157;-49.5925
0000.00.3103;RESERVA PARTICULAR DO PATRIMÔNIO NATURAL CORVO BRANCO;Federal;Reserva Particular do Patrimônio Natural;SC;2012;2012;Portaria 120 de 08/11/2012;URUBICI (SC);14.0;0;0;0;14;0;0;0;Mata Atlântica;Uso Sustentável;-28.0157;-49.5925
0000.00.3657;RESERVA PARTICULAR DO PATRIMÔNIO NATURAL SITIO CAETE;Federal;Reserva Particular do Patrimônio Natural;SP;2017;2017;Portaria 635 de 02/11/2017;NAZARÉ PAULISTA (SP);7.0;0;0;0;7;0;0;0;Mata Atlântica;Uso Sustentável;-23.1747;-46.3983
0000.00.3659;RESERVA PARTICULAR DO PATRIMÔNIO NATURAL CACHOEIRA DO ANDORINHÃO;Federal;Reserva Particular do Patrimônio Natural;MG;2018;2018;Portaria 80 de 31/01/2018;CAMBUÍ (MG);2.0;0;0;0;2;0;0;0;Mata Atlântica;Uso Sustentável;-22.6115;-46.0572
0000.00.3660;RESERVA PARTICULAR DO PATRIMÔNIO NATURAL BRAVA BEACH INTERNACIONAL;Federal;Reserva Particular do Patrimônio Natural;SC;2018;2018;Portaria 276 de 04/04/2018;ITAJAÍ (SC);6.0;0;0;0;6;0;0;0;Mata Atlântica;Uso Sustentável;-26.9101;-48.6705
0000.00.3661;RESERVA PARTICULAR DO PATRIMÔNIO NATURAL CONTENDAS II;Federal;Reserva Particular do Patrimônio Natural;BA;2018;2018;Portaria 22 de 05/01/2018;PIRAÍ DO NORTE (BA);173.0;0;0;0;173;0;0;0;Mata Atlântica;Uso Sustentável;-13.759;-39.3836
0000.00.3662;RESERVA PARTICULAR DO PATRIMÔNIO NATURAL PAPAGAIOS-DE-ALTITUDE;Federal;Reserva Particular do Patrimônio Natural;SC;2018;2018;Portaria 148 de 21/02/2018;URUPEMA (SC);36.0;0;0;0;36;0;0;0;Mata Atlântica;Uso Sustentável;-27.9557;-49.8729
0000.00.3664;RESERVA PARTICULAR DO PATRIMÔNIO NATURAL DAS ÁGUAS E DAS MATAS;Federal;Reserva Particular do Patrimônio Natural;BA;2017;2017;Portaria 544 de 24/08/2017;TAPEROÁ (BA);11.0;0;0;0;11;0;0;0;Mata Atlântica;Uso Sustentável;-13.5321;-39.1009
0000.00.3666;RESERVA PARTICULAR DO PATRIMÔNIO NATURAL RESERVA MATO GROSSO;Federal;Reserva Particular do Patrimônio Natural;BA;2017;2017;Portaria 546 de 24/08/2017;TAPEROÁ (BA);37.0;0;0;0;37;0;0;0;Mata Atlântica;Uso Sustentável;-13.5321;-39.1009
0000.00.3668;RESERVA PARTICULAR DO PATRIMÔNIO NATURAL DAS NASCENTES;Federal;Reserva Particular do Patrimônio Natural;BA;2017;2017;Portaria 545 de 24/08/2017;TAPEROÁ (BA);23.0;0;0;0;23;0;0;0;Mata Atlântica;Uso Sustentável;-13.5321;-39.1009
0000.00.3670;RESERVA PARTICULAR DO PATRIMÔNIO NATURAL JORGE LUIZ ORSI;Federal;Reserva Particular do Patrimônio Natural;SC;2016;2016;Portaria 54 de 20/05/2016;NOVA TRENTO (SC);2.0;0;0;0;2;0;0;0;Mata Atlântica;Uso Sustentável;-27.278;-48.9298
0000.00.3671;RESERVA PARTICULAR DO PATRIMÔNIO NATURAL LAFIGUEIRA - NATURARTE;Federal;Reserva Particular do Patrimônio Natural;SP;2017;2017;Portaria 371 de 30/05/2017;PIRACAIA (SP);34.0;0;0;0;34;0;0;0;Mata Atlântica;Uso Sustentável;-23.0525;-46.3594
0000.00.3673;RESERVA PARTICULAR DO PATRIMÔNIO NATURAL JARDIM DOS BEIJA-FLORES;Federal;Reserva Particular do Patrimônio Natural;SC;2017;2017;Portaria 497 de 27/07/2017;PAULO LOPES (SC);6.0;0;0;0;6;0;0;0;Mata Atlântica;Uso Sustentável;-27.9607;-48.6864
0000.00.3679;RESERVA PARTICULAR DO PATRIMÔNIO NATURAL PAPAGAIO-DE-PEITO-ROXO;Federal;Reserva Particular do Patrimônio Natural;PR;2017;2017;Portaria 637 de 02/08/2017;BOCAIÚVA DO SUL (PR);100.0;0;0;0;100;0;0;0;Mata Atlântica;Uso Sustentável;-25.2066;-49.1141
0000.00.3680;RESERVA PARTICULAR DO PATRIMÔNIO NATURAL PEDRA SOBRE PEDRA;Federal;Reserva Particular do Patrimônio Natural;PR;2016;2016;Portaria 9 de 01/02/2016;CAMPO MAGRO (PR);6.0;0;0;0;6;0;0;0;Mata Atlântica;Uso Sustentável;-25.3687;-49.4501
0000.00.3682;RESERVA PARTICULAR DO PATRIMÔNIO NATURAL CABURÉ;Federal;Reserva Particular do Patrimônio Natural;SP;2016;2016;Portaria 23 de 28/03/2016;SÃO JOSÉ DO BARREIRO (SP);114.0;0;0;0;114;0;0;0;Mata Atlântica;Uso Sustentável;-22.6414;-44.5774
0000.00.3683;RESERVA PARTICULAR DO PATRIMÔNIO NATURAL RIO VERMELHO;Federal;Reserva Particular do Patrimônio Natural;SC;2016;2016;Portaria 52 de 20/05/2016;FLORIANÓPOLIS (SC);76.0;0;0;0;76;0;0;0;Mata Atlântica;Uso Sustentável;-27.5945;-48.5477
0000.00.3685;RESERVA PARTICULAR DO PATRIMÔNIO NATURAL VILAR;Federal;Reserva Particular do Patrimônio Natural;PR;2016;2016;Portaria 25 de 15/04/2016;JAGUARIAÍVA (PR);100.0;0;0;0;100;0;0;0;Mata Atlântica;Uso Sustentável;-24.2439;-49.7066
0000.00.3687;RESERVA PARTICULAR DO PATRIMÔNIO NATURAL DUNAS DOURADAS;Federal;Reserva Particular do Patrimônio Natural;RN;2016;2016;Portaria 2 de 06/01/2016;EXTREMOZ (RN);166.0;0;0;0;166;0;0;0;Mata Atlântica;Uso Sustentável;-5.70143;-35.3048
0000.00.4465;RESERVA PARTICULAR DO PATRIMÔNIO NATURAL BELLATRIX;Federal;Reserva Particular do Patrimônio Natural;PR;2020;2020;Portaria 888 de 20/08/2020;BOCAIÚVA DO SUL (PR);71.0;0;0;0;71;0;0;0;Mata Atlântica;Uso Sustentável;-25.2066;-49.1141
0000.00.4468;RESERVA PARTICULAR DO PATRIMÔNIO NATURAL TAIPA RIO DO COURO II;Federal;Reserva Particular do Patrimônio Natural;SC;2020;2020;Portaria 641 de 05/06/2020;ITAIÓPOLIS (SC);99.0;0;0;0;99;0;0;0;Mata Atlântica;Uso Sustentável;-26.339;-49.9092
0000.00.4470;RESERVA PARTICULAR DO PATRIMÔNIO NATURAL PEDRA DO SÃO JOSÉ II;Federal;Reserva Particular do Patrimônio Natural;BA;2018;2018;Portaria 1.066 de 05/12/2018;ESPLANADA (BA);233.0;0;0;0;233;0;0;0;Mata Atlântica;Uso Sustentável;-11.7942;-37.9432
0000.00.4478;RESERVA PARTICULAR DO PATRIMÔNIO NATURAL FAZENDA CATADUPA;Federal;Reserva Particular do Patrimônio Natural;SP;2015;2015;Portaria 52 de 04/11/2015;SÃO JOSÉ DO BARREIRO (SP);38.0;0;0;0;38;0;0;0;Mata Atlântica;Uso Sustentável;-22.6414;-44.5774
0000.00.4481;RESERVA PARTICULAR DO PATRIMÔNIO NATURAL FLORESTA ENCANTADA;Federal;Reserva Particular do Patrimônio Natural;BA;2018;2018;Portaria 959 de 14/11/2018;ITACARÉ (BA);19.0;0;0;0;19;0;0;0;Mata Atlântica;Uso Sustentável;-14.2784;-38.9959
0000.00.4482;RESERVA PARTICULAR DO PATRIMÔNIO NATURAL RANCHO DE LUAR;Federal;Reserva Particular do Patrimônio Natural;SC;2014;2014;Portaria 96 de 12/09/2014;GUARUJÁ DO SUL (SC);5.0;0;0;0;5;0;0;0;Mata Atlântica;Uso Sustentável;-26.3858;-53.5296
0000.00.4484;RESERVA PARTICULAR DO PATRIMÔNIO NATURAL BELLATRIX 3;Federal;Reserva Particular do Patrimônio Natural;PR;2020;2020;Portaria 905 de 02/09/2020;BOCAIÚVA DO SUL (PR);9.0;0;0;0;9;0;0;0;Mata Atlântica;Uso Sustentável;-25.2066;-49.1141
0000.00.4485;RESERVA PARTICULAR DO PATRIMÔNIO NATURAL SANTA BÁRBARA;Federal;Reserva Particular do Patrimônio Natural;RS;2018;2018;Portaria 671 de 17/07/2018;CAXIAS DO SUL (RS);2.0;0;0;0;2;0;0;0;Mata Atlântica;Uso Sustentável;-29.1629;-51.1792
0000.00.4486;RESERVA PARTICULAR DO PATRIMÔNIO NATURAL SERRA BONITA V;Federal;Reserva Particular do Patrimônio Natural;BA;2018;2018;Portaria 815 de 24/09/2018;CAMACAN (BA);10.0;0;0;0;10;0;0;0;Mata Atlântica;Uso Sustentável;-15.4142;-39.4919
0000.00.4491;RESERVA PARTICULAR DO PATRIMÔNIO NATURAL MATA DA BELA;Federal;Reserva Particular do Patrimônio Natural;RN;2019;2019;Portaria 479 de 09/09/2019;BAÍA FORMOSA (RN);89.0;0;0;0;89;0;0;0;Mata Atlântica;Uso Sustentável;-6.37161;-35.0033
0000.00.4492;RESERVA PARTICULAR DO PATRIMÔNIO NATURAL SÍTIO PAIQUERÊ;Federal;Reserva Particular do Patrimônio Natural;RJ;2002;2002;Portaria 89 de 06/08/2002;NOVA IGUAÇU (RJ);184.0;0;0;0;184;0;0;0;Mata Atlântica;Uso Sustentável;-22.7556;-43.4603
0000.00.4494;RESERVA PARTICULAR DO PATRIMÔNIO NATURAL CACHOEIRA DA IMBUIA;Federal;Reserva Particular do Patrimônio Natural;SC;2021;2021;Portaria 675 de 26/10/2021;PORTO UNIÃO (SC);67.0;0;0;0;67;0;0;0;Mata Atlântica;Uso Sustentável;-26.2451;-51.0759
0000.00.4495;RESERVA PARTICULAR DO PATRIMÔNIO NATURAL BELLATRIX 2;Federal;Reserva Particular do Patrimônio Natural;PR;2020;2020;Portaria 906 de 02/09/2020;BOCAIÚVA DO SUL (PR);4.0;0;0;0;4;0;0;0;Mata Atlântica;Uso Sustentável;-25.2066;-49.1141
0000.00.4500;RESERVA PARTICULAR DO PATRIMÔNIO NATURAL SERRA BONITA IX;Federal;Reserva Particular do Patrimônio Natural;BA;2020;2020;Portaria 551 de 26/05/2020;CAMACAN (BA);12.0;0;0;0;12;0;0;0;Mata Atlântica;Uso Sustentável;-15.4142;-39.4919
0000.00.4501;RESERVA PARTICULAR DO PATRIMÔNIO NATURAL PONTÕES BERGEZEL;Federal;Reserva Particular do Patrimônio Natural;ES;2022;2022;Portaria 201 de 17/03/2022;MIMOSO DO SUL (ES);3.0;0;0;0;3;0;0;0;Mata Atlântica;Uso Sustentável;-21.0628;-41.3615
0000.00.4502;RESERVA PARTICULAR DO PATRIMÔNIO NATURAL SERRA BONITA III;Federal;Reserva Particular do Patrimônio Natural;BA;2020;2020;Portaria 231 de 24/03/2020;PAU BRASIL (BA);159.0;0;0;0;159;0;0;0;Mata Atlântica;Uso Sustentável;-15.4572;-39.6458
0000.00.4504;RESERVA PARTICULAR DO PATRIMÔNIO NATURAL JATAIPEBA;Federal;Reserva Particular do Patrimônio Natural;BA;2014;2014;Portaria 89 de 20/08/2014;NILO PEÇANHA (BA);298.0;0;0;0;298;0;0;0;Mata Atlântica;Uso Sustentável;-13.604;-39.1091
0000.00.4506;RESERVA PARTICULAR DO PATRIMÔNIO NATURAL ELDORADO;Federal;Reserva Particular do Patrimônio Natural;RJ;2018;2018;Portaria 856 de 09/10/2018;SAQUAREMA (RJ);140.0;0;0;0;140;0;0;0;Mata Atlântica;Uso Sustentável;-22.9292;-42.5099
0000.00.4509;RESERVA PARTICULAR DO PATRIMÔNIO NATURAL NINHO DA TARTARUGA;Federal;Reserva Particular do Patrimônio Natural;MG;2021;2021;Portaria 708 de 08/11/2021;TOMBOS (MG);83.0;0;0;0;83;0;0;0;Mata Atlântica;Uso Sustentável;-20.9086;-42.0228
0000.00.4511;RESERVA PARTICULAR DO PATRIMÔNIO NATURAL POSSE DOS FRANCIOSI;Federal;Reserva Particular do Patrimônio Natural;RS;2015;2015;Portaria 10 de 31/01/2015;TAQUARUÇU DO SUL (RS);268.0;0;0;0;268;0;0;0;Mata Atlântica;Uso Sustentável;-27.4005;-53.4702
0000.00.4512;RESERVA PARTICULAR DO PATRIMÔNIO NATURAL TRAVESSIA;Federal;Reserva Particular do Patrimônio Natural;SP;2014;2014;Portaria 112 de 21/10/2014;LAVRINHAS (SP);256.0;0;0;0;256;0;0;0;Mata Atlântica;Uso Sustentável;-22.57;-44.9024
0000.00.4515;RESERVA PARTICULAR DO PATRIMÔNIO NATURAL RESERVA HEINZ BAHR;Federal;Reserva Particular do Patrimônio Natural;SC;2015;2015;Portaria 55 de 16/12/2015;CAMPO ALEGRE (SC);87.0;0;0;0;87;0;0;0;Mata Atlântica;Uso Sustentável;-26.195;-49.2676
0000.00.4516;RESERVA PARTICULAR DO PATRIMÔNIO NATURAL CACHOEIRA DO JUJU;Federal;Reserva Particular do Patrimônio Natural;MG;2021;2021;Portaria 714 de 08/11/2021;BAEPENDI (MG);3.0;0;0;0;3;0;0;0;Mata Atlântica;Uso Sustentável;-21.957;-44.8874
0000.00.4517;RESERVA PARTICULAR DO PATRIMÔNIO NATURAL ENCONTRO DAS ÁGUAS;Federal;Reserva Particular do Patrimônio Natural;PR;2021;2021;Portaria 309 de 11/05/2021;PARANAGUÁ (PR);18.0;0;0;0;18;0;0;0;Mata Atlântica;Uso Sustentável;-25.5161;-48.5225
0000.00.4520;RESERVA PARTICULAR DO PATRIMÔNIO NATURAL FAZENDA ILHA;Federal;Reserva Particular do Patrimônio Natural;PR;2022;2022;Portaria 162 de 11/03/2022;ADRIANÓPOLIS (PR);112.0;0;0;0;112;0;0;0;Mata Atlântica;Uso Sustentável;-24.6606;-48.9922
0000.00.4521;RESERVA PARTICULAR DO PATRIMÔNIO NATURAL SOLAR DAS BORBOLETAS;Federal;Reserva Particular do Patrimônio Natural;RS;2020;2020;Portaria 1109 de 26/11/2020;ITAARA (RS);1.0;0;0;0;1;0;0;0;Mata Atlântica;Uso Sustentável;-29.6013;-53.7725
0000.00.4523;RESERVA PARTICULAR DO PATRIMÔNIO NATURAL SERRA BONITA IV;Federal;Reserva Particular do Patrimônio Natural;BA;2018;2018;Portaria 816 de 24/09/2018;CAMACAN (BA);51.0;0;0;0;51;0;0;0;Mata Atlântica;Uso Sustentável;-15.4142;-39.4919
0000.00.4524;RESERVA PARTICULAR DO PATRIMÔNIO NATURAL PRIMA LUNA I;Federal;Reserva Particular do Patrimônio Natural;SC;2014;2014;Portaria 88 de 20/08/2014;NOVA TRENTO (SC);70.0;0;0;0;70;0;0;0;Mata Atlântica;Uso Sustentável;-27.278;-48.9298
0000.00.4528;RESERVA PARTICULAR DO PATRIMÔNIO NATURAL ANTENOR RIVAL CREMA;Federal;Reserva Particular do Patrimônio Natural;PR;2014;2014;Portaria 118 de 03/11/2014;BOCAIÚVA DO SUL (PR);133.0;0;0;0;133;0;0;0;Mata Atlântica;Uso Sustentável;-25.2066;-49.1141
0000.00.4531;RESERVA PARTICULAR DO PATRIMÔNIO NATURAL PINHEIRINHO 23;Federal;Reserva Particular do Patrimônio Natural;SC;2014;2014;Portaria 95 de 12/09/2014;SÃO BENTO DO SUL (SC);22.0;0;0;0;22;0;0;0;Mata Atlântica;Uso Sustentável;-26.2495;-49.3831
0000.00.4532;RESERVA PARTICULAR DO PATRIMÔNIO NATURAL CHÁCARA SÃO MIGUEL;Federal;Reserva Particular do Patrimônio Natural;SC;2021;2021;Portaria 1021 de 16/12/2021;CURITIBANOS (SC);11.0;0;0;0;11;0;0;0;Mata Atlântica;Uso Sustentável;-27.2824;-50.5816
0000.00.4536;RESERVA PARTICULAR DO PATRIMÔNIO NATURAL SERRA DE MIGUEL PEREIRA;Federal;Reserva Particular do Patrimônio Natural;RJ;2021;2021;Portaria 715 de 08/11/2021;MIGUEL PEREIRA (RJ);5.0;0;0;0;5;0;0;0;Mata Atlântica;Uso Sustentável;-22.4572;-43.4803
0000.00.4537;RESERVA PARTICULAR DO PATRIMÔNIO NATURAL PRÓ-MATA;Federal;Reserva Particular do Patrimônio Natural;RS;2019;2019;Portaria 433 de 03/09/2019;SÃO FRANCISCO DE PAULA (RS);2398.0;0;0;0;2398;0;0;0;Mata Atlântica;Uso Sustentável;-29.4404;-50.5828
0000.00.4544;RESERVA PARTICULAR DO PATRIMÔNIO NATURAL SERRA BONITA VI;Federal;Reserva Particular do Patrimônio Natural;BA;2023;2023;Portaria 212 de 20/01/2023;CAMACAN (BA);49.0;0;0;0;49;0;0;0;Mata Atlântica;Uso Sustentável;-15.4142;-39.4919
0000.00.4546;RESERVA PARTICULAR DO PATRIMÔNIO NATURAL FERLAG RESINAS BRASIL;Federal;Reserva Particular do Patrimônio Natural;SP;2022;2022;Portaria 464 de 03/06/2022;NOVA CAMPINA (SP);90.0;0;0;0;90;0;0;0;Mata Atlântica;Uso Sustentável;-24.1224;-48.9022
0000.00.4548;RESERVA PARTICULAR DO PATRIMÔNIO NATURAL FAZENDA BUTIA;Federal;Reserva Particular do Patrimônio Natural;SC;2022;2022;Portaria 359 de 09/05/2022;RIO NEGRINHO (SC);9.0;0;0;0;9;0;0;0;Mata Atlântica;Uso Sustentável;-26.2591;-49.5177
0000.00.4549;RESERVA PARTICULAR DO PATRIMÔNIO NATURAL SERRA BONITA VIII;Federal;Reserva Particular do Patrimônio Natural;BA;2023;2023;Portaria 213 de 20/01/2023;CAMACAN (BA);26.0;0;0;0;26;0;0;0;Mata Atlântica;Uso Sustentável;-15.4142;-39.4919
0000.00.2126;RESERVA PARTICULAR DO PATRIMÔNIO NATURAL JATOBÁ;Federal;Reserva Particular do Patrimônio Natural;BA;2008;2008;Portaria 101 de 12/12/2008;PIRAÍ DO NORTE (BA);16.0;0;0;0;16;0;0;0;Mata Atlântica;Uso Sustentável;-13.759;-39.3836
0000.00.0035;ÁREA DE RELEVANTE INTERESSE ECOLÓGICO FLORESTA DA CICUTA;Federal;Área de Relevante Interesse Ecológico;RJ;1985;1985;Decreto Nº 90.792 de 09/01/1985;BARRA MANSA (RJ) - VOLTA REDONDA (RJ);125.0;0;0;0;125;0;0;0;Mata Atlântica;Uso Sustentável;-22.53415;-44.1374
0000.00.0040;ÁREA DE RELEVANTE INTERESSE ECOLÓGICO MATA DE SANTA GENEBRA;Federal;Área de Relevante Interesse Ecológico;SP;1985;1985;Decreto Nº 91.885 de 05/11/1985;CAMPINAS (SP) - PAULÍNIA (SP);242.0;0;0;0;242;0;0;0;Mata Atlântica;Uso Sustentável;-22.82975;-47.10735
0000.00.0041;ÁREA DE RELEVANTE INTERESSE ECOLÓGICO MATÃO DE COSMÓPOLIS;Federal;Área de Relevante Interesse Ecológico;SP;1985;1985;Decreto Nº 90.791 de 09/01/1985;ARTUR NOGUEIRA (SP) - COSMÓPOLIS (SP);173.0;0;0;0;173;0;0;0;Mata Atlântica;Uso Sustentável;-22.607300000000002;-47.182649999999995
0000.00.0045;ÁREA DE RELEVANTE INTERESSE ECOLÓGICO SERRA DA ABELHA;Federal;Área de Relevante Interesse Ecológico;SC;1996;1996;Decreto S/N de 28/05/1996;VITOR MEIRELES (SC);5017.0;0;0;0;5017;0;0;0;Mata Atlântica;Uso Sustentável;-26.8782;-49.8328
0000.00.0050;ESTAÇÃO ECOLÓGICA DE ARACURI-ESMERALDA;Federal;Estação Ecológica;RS;1981;1981;Decreto Nº 86.061 de 02/06/1981;MUITOS CAPÕES (RS);277.0;0;0;0;277;0;0;0;Mata Atlântica;Proteção Integral;-28.3132;-51.1836
0000.00.0059;ESTAÇÃO ECOLÓGICA DE MURICI;Federal;Estação Ecológica;AL;2001;2001;Decreto S/N de 28/05/2001;FLEXEIRAS (AL) - MESSIAS (AL) - MURICI (AL);6132.0;0;0;0;6132;0;0;0;Mata Atlântica;Proteção Integral;-9.324489999999999;-35.831966666666666
0000.00.0077;FLORESTA NACIONAL DE ASSUNGUI;Federal;Floresta;PR;1968;1968;Portaria Nº 559 de 25/10/1968;CAMPO LARGO (PR);491.0;0;0;0;491;0;0;0;Mata Atlântica;Uso Sustentável;-25.4525;-49.529
0000.00.0078;FLORESTA NACIONAL DE CAÇADOR;Federal;Floresta;SC;1968;1968;Portaria Nº 560 de 25/10/1968;CAÇADOR (SC);707.0;0;0;0;707;0;0;0;Mata Atlântica;Uso Sustentável;-26.7757;-51.012
0000.00.0080;FLORESTA NACIONAL DE CHAPECÓ;Federal;Floresta;SC;1968;1968;Portaria Nº 560 de 25/10/1968;CHAPECÓ (SC) - GUATAMBÚ (SC);1604.0;0;0;0;1604;0;0;0;Mata Atlântica;Uso Sustentável;-27.11725;-52.70195
0000.00.0087;FLORESTA NACIONAL DE CANELA;Federal;Floresta;RS;1968;1968;Portaria Nº 561 de 25/10/1968;CANELA (RS);564.0;0;0;0;564;0;0;0;Mata Atlântica;Uso Sustentável;-29.356;-50.8119
0000.00.0093;FLORESTA NACIONAL DE IBIRAMA;Federal;Floresta;SC;1988;1988;Decreto nº 95.818 de 11/03/1988;APIÚNA (SC) - ASCURRA (SC) - IBIRAMA (SC);519.0;0;0;0;519;0;0;0;Mata Atlântica;Uso Sustentável;-27.015666666666664;-49.4287
0000.00.0094;FLORESTA NACIONAL DE IPANEMA;Federal;Floresta;SP;1992;1992;Decreto Nº 530 de 20/05/1992;ARAÇOIABA DA SERRA (SP) - CAPELA DO ALTO (SP) - IPERÓ (SP);5065.0;0;0;0;5065;0;0;0;Mata Atlântica;Uso Sustentável;-23.4409;-47.682700000000004
0000.00.0100;FLORESTA NACIONAL DE NÍSIA FLORESTA;Federal;Floresta;RN;2001;2001;Decreto S/N de 27/09/2001;NÍSIA FLORESTA (RN);169.0;0;0;0;169;0;0;0;Mata Atlântica;Uso Sustentável;-6.09329;-35.1991
0000.00.0101;FLORESTA NACIONAL DE PACOTUBA;Federal;Floresta;ES;2002;2002;Decreto S/N de 13/12/2002;CACHOEIRO DE ITAPEMIRIM (ES);449.0;0;0;0;449;0;0;0;Mata Atlântica;Uso Sustentável;-20.8462;-41.1198
0000.00.0105;FLORESTA NACIONAL DE RITÁPOLIS;Federal;Floresta;MG;1999;1999;Decreto S/N de 21/09/1999;RITÁPOLIS (MG);89.0;0;0;0;89;0;0;0;Mata Atlântica;Uso Sustentável;-21.0276;-44.3204
0000.00.0122;FLORESTA NACIONAL DE RIO PRETO;Federal;Floresta;ES;1990;1990;Decreto Nº 98.845 de 17/01/1990;CONCEIÇÃO DA BARRA (ES);2817.0;0;0;0;2817;0;0;0;Mata Atlântica;Uso Sustentável;-18.5883;-39.7362
0000.00.0125;FLORESTA NACIONAL DE IRATI;Federal;Floresta;PR;1968;1968;Portaria Nº 559 de 25/10/1968;FERNANDES PINHEIRO (PR) - TEIXEIRA SOARES (PR);3803.0;0;0;0;3803;0;0;0;Mata Atlântica;Uso Sustentável;-25.3904;-50.50135
0000.00.0127;FLORESTA NACIONAL MÁRIO XAVIER;Federal;Floresta;RJ;1986;1986;Decreto Nº 93.693 de 08/10/1986;SEROPÉDICA (RJ);496.0;0;0;0;496;0;0;0;Mata Atlântica;Uso Sustentável;-22.7526;-43.7155
0000.00.0130;FLORESTA NACIONAL DE PASSO FUNDO;Federal;Floresta;RS;1968;1968;Portaria Nº 561 de 25/10/1968;MATO CASTELHANO (RS);1334.0;0;0;0;1334;0;0;0;Mata Atlântica;Uso Sustentável;-28.28;-52.1932
0000.00.0131;FLORESTA NACIONAL DE PIRAÍ DO SUL;Federal;Floresta;PR;2004;2004;Decreto S/N de 02/06/2004;CASTRO (PR) - PIRAÍ DO SUL (PR);151.0;0;0;0;151;0;0;0;Mata Atlântica;Uso Sustentável;-24.65985;-49.977050000000006
0000.00.0132;FLORESTA NACIONAL DA RESTINGA DE CABEDELO;Federal;Floresta;PB;2004;2004;Decreto S/N de 02/06/2004;CABEDELO (PB) - JOÃO PESSOA (PB);113.0;0;0;0;113;0;0;0;Mata Atlântica;Uso Sustentável;-7.0512;-34.84625
0000.00.0134;FLORESTA NACIONAL DE TRÊS BARRAS;Federal;Floresta;SC;1968;1968;Portaria Nº 560 de 25/10/1968;TRÊS BARRAS (SC);4385.0;0;0;0;4385;0;0;0;Mata Atlântica;Uso Sustentável;-26.1056;-50.3197
0000.00.0153;PARQUE NACIONAL DA SERRA GERAL;Federal;Parque;RS, SC;1992;1992;Decreto Nº 531 de 20/05/1992;CAMBARÁ DO SUL (RS) - JACINTO MACHADO (SC) - PRAIA GRANDE (SC);17275.0;0;0;0;17275;0;0;0;Mata Atlântica;Proteção Integral;-29.078433333333333;-49.953766666666674
0000.00.0193;RESERVA BIOLÓGICA DA MATA ESCURA;Federal;Reserva Biológica;MG;2003;2003;Decreto S/N de 05/06/2003;ALMENARA (MG) - JEQUITINHONHA (MG);50892.0;0;0;0;50892;0;0;0;Mata Atlântica;Proteção Integral;-16.308;-40.85295
0000.00.0197;RESERVA BIOLÓGICA DE PEDRA TALHADA;Federal;Reserva Biológica;AL, PE;1989;1989;Decreto Nº 98.524 de 13/12/1989;CORRENTES (PE) - LAGOA DO OURO (PE) - QUEBRANGULO (AL);4382.0;0;0;0;4382;0;0;0;Mata Atlântica;Proteção Integral;-9.18895;-36.41733333333333
0000.00.0198;RESERVA BIOLÓGICA DE SALTINHO;Federal;Reserva Biológica;PE;1983;1983;Decreto Nº 88.744 de 21/09/1983;RIO FORMOSO (PE) - TAMANDARÉ (PE);563.0;0;0;0;563;0;0;0;Mata Atlântica;Proteção Integral;-8.707925;-35.128249999999994
0000.00.0205;RESERVA BIOLÓGICA DO CÓRREGO GRANDE;Federal;Reserva Biológica;ES;1989;1989;Decreto Nº 97.657 de 12/04/1989;CONCEIÇÃO DA BARRA (ES);1504.0;0;0;0;1504;0;0;0;Mata Atlântica;Proteção Integral;-18.5883;-39.7362
0000.00.0261;ESTAÇÃO ECOLÓGICA DA MATA PRETA;Federal;Estação Ecológica;PR, SC;2005;2005;Decreto S/N de 19/10/2005;ABELARDO LUZ (SC) - CLEVELÂNDIA (PR) - PALMAS (PR);6573.0;0;0;0;6573;0;0;0;Mata Atlântica;Proteção Integral;-26.4866;-52.22083333333333
0000.00.0262;PARQUE NACIONAL DAS ARAUCÁRIAS;Federal;Parque;SC;2005;2005;Decreto S/N de 19/10/2005;PASSOS MAIA (SC) - PONTE SERRADA (SC);12810.0;0;0;0;12810;0;0;0;Mata Atlântica;Proteção Integral;-26.8281;-52.034000000000006
0000.00.0269;FLORESTA NACIONAL DO IBURA;Federal;Floresta;SE;2005;2005;Decreto S/N de 19/09/2005;LARANJEIRAS (SE) - NOSSA SENHORA DO SOCORRO (SE);144.0;0;0;0;144;0;0;0;Mata Atlântica;Uso Sustentável;-10.82245;-37.1481
0000.00.0275;RESERVA BIOLÓGICA DAS PEROBAS;Federal;Reserva Biológica;PR;2006;2006;Decreto S/N de 20/03/2006;CIANORTE (PR) - TUNEIRAS DO OESTE (PR);8716.0;0;0;0;8716;0;0;0;Mata Atlântica;Proteção Integral;-23.762349999999998;-52.741150000000005
0000.00.0276;RESERVA BIOLÓGICA DAS ARAUCÁRIAS;Federal;Reserva Biológica;PR;2006;2006;Decreto S/N de 23/03/2006;FERNANDES PINHEIRO (PR) - IMBITUVA (PR) - IPIRANGA (PR) - TEIXEIRA SOARES (PR);14930.0;0;0;0;14930;0;0;0;Mata Atlântica;Proteção Integral;-25.258275000000005;-50.545249999999996
0000.00.0277;PARQUE NACIONAL DOS CAMPOS GERAIS;Federal;Parque;PR;2006;2006;Decreto S/N de 23/03/2006;CARAMBEÍ (PR) - CASTRO (PR) - PONTA GROSSA (PR);21299.0;0;0;0;21299;0;0;0;Mata Atlântica;Proteção Integral;-24.931966666666668;-50.09206666666666
0000.00.0278;REFÚGIO DE VIDA SILVESTRE DOS CAMPOS DE PALMAS;Federal;Refúgio de Vida Silvestre;PR;2006;2006;Decreto S/N de 03/04/2006;GENERAL CARNEIRO (PR) - PALMAS (PR);16594.0;0;0;0;16594;0;0;0;Mata Atlântica;Proteção Integral;-26.45445;-51.653
0000.00.1521;ÁREA DE PROTEÇÃO AMBIENTAL BACIA DO PARAÍBA DO SUL;Federal;Área de Proteção Ambiental;SP;1982;1982;Decreto 87561 de 13/09/1982;APARECIDA (SP);292600.0;0;0;0;292600;0;0;0;Mata Atlântica;Uso Sustentável;-22.8495;-45.2325
0000.00.1909;PARQUE NACIONAL DA SERRA DAS LONTRAS;Federal;Parque;BA;2010;2010;Decreto S/N de 11/06/2010;ARATACA (BA) - SÃO JOSÉ DA VITÓRIA (BA) - UNA (BA);11344.0;0;0;0;11344;0;0;0;Mata Atlântica;Proteção Integral;-15.207633333333334;-39.27973333333333
0000.00.1910;PARQUE NACIONAL DO ALTO CARIRI;Federal;Parque;BA;2010;2010;Decreto S/N de 11/06/2010;GUARATINGA (BA);19260.0;0;0;0;19260;0;0;0;Mata Atlântica;Proteção Integral;-16.5833;-39.7847
0000.00.2634;RESERVA BIOLÓGICA BOM JESUS;Federal;Reserva Biológica;PR;2012;2012;Decreto S/N de 05/06/2012;ANTONINA (PR) - GUARAQUEÇABA (PR) - PARANAGUÁ (PR);34179.0;0;0;0;34179;0;0;0;Mata Atlântica;Proteção Integral;-25.420599999999997;-48.52066666666667
0000.00.3137;PARQUE NACIONAL GUARICANA;Federal;Parque;PR;2014;2014;Decreto S/N de 13/10/2014;GUARATUBA (PR) - MORRETES (PR) - SÃO JOSÉ DOS PINHAIS (PR);49287.0;0;0;0;49287;0;0;0;Mata Atlântica;Proteção Integral;-25.629133333333332;-48.87093333333333
0000.00.5124;RESERVA DE DESENVOLVIMENTO SUSTENTÁVEL FAXINAL BOM RETIRO;Federal;Reserva de Desenvolvimento Sustentável;PR;2025;2025;Decreto Nº 12.482 de 03/06/2025;PINHÃO (PR);1370.0;0;0;0;1370;0;0;0;Mata Atlântica;Uso Sustentável;-25.6944;-51.6536
0000.00.5125;RESERVA DE DESENVOLVIMENTO SUSTENTÁVEL FAXINAL SÃO ROQUINHO;Federal;Reserva de Desenvolvimento Sustentável;PR;2025;2025;Decreto Nº 12.487 de 03/06/2025;PINHÃO (PR);1212.0;0;0;0;1212;0;0;0;Mata Atlântica;Uso Sustentável;-25.6944;-51.6536
0000.25.2309;ÁREA DE PROTEÇÃO AMBIENTAL RONCADOR;Estadual;Área de Proteção Ambiental;PB;2006;2006;Decreto 27.204 de 06/06/2006;BANANEIRAS (PB) - PIRPIRITUBA (PB);6113.0;0;0;0;6113;0;0;0;Mata Atlântica;Uso Sustentável;-6.763484999999999;-35.5576
0000.27.2684;RESERVA PARTICULAR DO PATRIMÔNIO NATURAL CACHOEIRA;Estadual;Reserva Particular do Patrimônio Natural;AL;2008;2009;Portaria 023/2008 de 13/11/2008;TANQUE D'ARCA (AL);34.0;0;0;0;34;0;0;0;Mata Atlântica;Uso Sustentável;-9.53379;-36.4366
0000.31.0402;ÁREA DE PROTEÇÃO AMBIENTAL FERNÃO DIAS;Estadual;Área de Proteção Ambiental;MG;1997;1997;Decreto 38.925 de 17/07/1997;BRAZÓPOLIS (MG) - CAMANDUCAIA (MG) - EXTREMA (MG) - GONÇALVES (MG) - ITAPEVA (MG) - PARAISÓPOLIS (MG) - SAPUCAÍ-MIRIM (MG) - TOLEDO (MG);182215.0;0;0;0;182215;0;0;0;Mata Atlântica;Uso Sustentável;-22.6922125;-46.006825
0000.31.0410;PARQUE ESTADUAL SERRA DA CANDONGA;Estadual;Parque;MG;1998;1998;Decreto 40170 de 17/12/1998;GUANHÃES (MG);3330.0;0;0;0;3330;0;0;0;Mata Atlântica;Proteção Integral;-18.7713;-42.9312
0000.31.3817;RESERVA PARTICULAR DO PATRIMÔNIO NATURAL ANGLOGOLD ASHANTI - CUIABÁ;Estadual;Reserva Particular do Patrimônio Natural;MG;2007;2007;Portaria 181 de 12/12/2007;CAETÉ (MG) - SABARÁ (MG);727.0;0;0;0;727;0;0;0;Mata Atlântica;Uso Sustentável;-19.8833;-43.74835
0000.31.3873;ÁREA DE PROTEÇÃO AMBIENTAL PARQUE FERNÃO DIAS;Estadual;Área de Proteção Ambiental;MG;2016;2016;Lei ordinária 22428 de 20/12/2016;BETIM (MG) - CONTAGEM (MG);99.0;0;0;0;99;0;0;0;Mata Atlântica;Uso Sustentável;-19.94945;-44.12735
0000.31.3886;RESERVA PARTICULAR DO PATRIMÔNIO NATURAL ALBERT SCHARLE;Estadual;Reserva Particular do Patrimônio Natural;MG;2014;2014;Portaria 8 de 25/02/2014;SABARÁ (MG);94.0;0;0;0;94;0;0;0;Mata Atlântica;Uso Sustentável;-19.884;-43.8263
0000.31.3894;RESERVA PARTICULAR DO PATRIMÔNIO NATURAL ANA HELENA;Estadual;Reserva Particular do Patrimônio Natural;MG;2012;2012;Portaria 204 de 21/12/2012;ITAVERAVA (MG);62.0;0;0;0;62;0;0;0;Mata Atlântica;Uso Sustentável;-20.6769;-43.6141
0000.31.3933;RESERVA PARTICULAR DO PATRIMÔNIO NATURAL CÓRREGO DO SÍTIO I;Estadual;Reserva Particular do Patrimônio Natural;MG;2016;2016;Portaria 63 de 16/09/2016;SANTA BÁRBARA (MG);180.0;0;0;0;180;0;0;0;Mata Atlântica;Uso Sustentável;-19.9604;-43.4101
0000.35.0844;PARQUE ESTADUAL DA CANTAREIRA;Estadual;Parque;SP;1968;1968;Lei ordinária 10228 de 24/09/1968;CAIEIRAS (SP) - GUARULHOS (SP) - MAIRIPORÃ (SP) - SÃO PAULO (SP);7620.0;0;0;0;7620;0;0;0;Mata Atlântica;Proteção Integral;-23.416125;-46.62555
0000.35.0859;PARQUE ESTADUAL DO JARAGUÁ;Estadual;Parque;SP;1961;1961;Decreto 38391 de 03/05/1961;OSASCO (SP) - SÃO PAULO (SP);492.0;0;0;0;492;0;0;0;Mata Atlântica;Proteção Integral;-23.53265;-46.71555
0000.35.1694;ÁREA DE PROTEÇÃO AMBIENTAL DO BANHADO;Estadual;Área de Proteção Ambiental;SP;2002;2002;Lei ordinária 11262 de 08/11/2002;SÃO JOSÉ DOS CAMPOS (SP);3121.0;0;0;0;3121;0;0;0;Mata Atlântica;Uso Sustentável;-23.1896;-45.8841
0000.35.1696;ÁREA DE PROTEÇÃO AMBIENTAL CAJAMAR;Estadual;Área de Proteção Ambiental;SP;1984;1984;Lei ordinária 4055 de 04/06/1984;CAJAMAR (SP);13102.0;0;0;0;13102;0;0;0;Mata Atlântica;Uso Sustentável;-23.355;-46.8781
0000.35.1705;ÁREA DE PROTEÇÃO AMBIENTAL MATA DO IGUATEMÍ;Estadual;Área de Proteção Ambiental;SP;1993;1993;Lei ordinária 8284 de 02/04/1993;SÃO PAULO (SP);30.0;0;0;0;30;0;0;0;Mata Atlântica;Uso Sustentável;-23.5329;-46.6395
0000.35.1708;ÁREA DE PROTEÇÃO AMBIENTAL PIRACICABA JUQUERÍ-MIRIM AREA II;Estadual;Área de Proteção Ambiental;SP;1991;1991;Lei ordinária 7438 de 16/07/1991;AMPARO (SP) - BRAGANÇA PAULISTA (SP) - JAGUARIÚNA (SP) - JOANÓPOLIS (SP) - MONTE ALEGRE DO SUL (SP) - MORUNGABA (SP) - NAZARÉ PAULISTA (SP) - PEDRA BELA (SP) - PEDREIRA (SP) - PINHALZINHO (SP) - PIRACAIA (SP) - TUIUTI (SP) - VARGEM (SP);285352.0;0;0;0;285352;0;0;0;Mata Atlântica;Uso Sustentável;-22.85393076923077;-46.60288461538461
0000.35.1716;ÁREA DE PROTEÇÃO AMBIENTAL SERRA DO MAR;Estadual;Área de Proteção Ambiental;SP;1984;1984;Decreto 22717 de 21/09/1984;CAPÃO BONITO (SP) - ELDORADO (SP) - IPORANGA (SP) - JUQUIÁ (SP) - JUQUITIBA (SP) - MIRACATU (SP) - PEDRO DE TOLEDO (SP) - RIBEIRÃO GRANDE (SP) - SETE BARRAS (SP) - TAPIRAÍ (SP);417294.0;0;0;0;417294;0;0;0;Mata Atlântica;Uso Sustentável;-24.23559;-47.82672
0000.35.1718;ÁREA DE PROTEÇÃO AMBIENTAL SISTEMA CANTAREIRA;Estadual;Área de Proteção Ambiental;SP;1998;1998;Lei ordinária 10111 de 04/12/1998;ATIBAIA (SP) - BRAGANÇA PAULISTA (SP) - JOANÓPOLIS (SP) - MAIRIPORÃ (SP) - NAZARÉ PAULISTA (SP) - PIRACAIA (SP) - VARGEM (SP);254094.0;0;0;0;254094;0;0;0;Mata Atlântica;Uso Sustentável;-23.061157142857144;-46.44744285714285
0000.35.1965;PARQUE ESTADUAL DE ITAPETINGA;Estadual;Parque;SP;2010;2010;Decreto 55.662 de 30/03/2010;ATIBAIA (SP) - BOM JESUS DOS PERDÕES (SP) - MAIRIPORÃ (SP) - NAZARÉ PAULISTA (SP);10194.0;0;0;0;10194;0;0;0;Mata Atlântica;Proteção Integral;-23.186125;-46.50295
0000.35.1966;PARQUE ESTADUAL DE ITABERABA;Estadual;Parque;SP;2010;2010;Decreto 55.662 de 30/03/2010;ARUJÁ (SP) - GUARULHOS (SP) - NAZARÉ PAULISTA (SP) - SANTA ISABEL (SP);15118.0;0;0;0;15118;0;0;0;Mata Atlântica;Proteção Integral;-23.33555;-46.368825
0000.35.1967;MONUMENTO NATURAL ESTADUAL DA PEDRA GRANDE;Estadual;Monumento Natural;SP;2010;2010;Decreto 55.662 de 30/03/2010;ATIBAIA (SP) - BOM JESUS DOS PERDÕES (SP) - MAIRIPORÃ (SP) - NAZARÉ PAULISTA (SP);3298.0;0;0;0;3298;0;0;0;Mata Atlântica;Proteção Integral;-23.186125;-46.50295
0000.35.2015;RESERVA PARTICULAR DO PATRIMÔNIO NATURAL PARAÍSO;Estadual;Reserva Particular do Patrimônio Natural;SP;2008;2008;Resolução 27 de 24/04/2008;MAIRIPORÃ (SP);4.0;0;0;0;4;0;0;0;Mata Atlântica;Uso Sustentável;-23.3171;-46.5897
0000.35.2019;RPPN MAHAYANA;Estadual;Reserva Particular do Patrimônio Natural;SP;2008;2008;Resolução 28 de 24/04/2008;MOGI DAS CRUZES (SP);9.0;0;0;0;9;0;0;0;Mata Atlântica;Uso Sustentável;-23.5208;-46.1854
0000.35.2020;RESERVA PARTICULAR DO PATRIMÔNIO NATURAL SÃO JUDAS TADEU;Estadual;Reserva Particular do Patrimônio Natural;SP;2008;2008;Resolução 65 de 11/09/2008;JUQUITIBA (SP);6.0;0;0;0;6;0;0;0;Mata Atlântica;Uso Sustentável;-23.9244;-47.0653
0000.35.2559;PARQUE ESTADUAL ALBERTO LÖFGREN;Estadual;Parque;SP;1968;1968;Lei ordinária Lei 10228 de 24/09/1968;SÃO PAULO (SP);177.0;0;0;0;177;0;0;0;Mata Atlântica;Proteção Integral;-23.5329;-46.6395
0000.35.2700;FLORESTA ESTADUAL DE GUARULHOS;Estadual;Floresta;SP;2010;2010;Decreto 55662 de 30/03/2010;GUARULHOS (SP);92.0;0;0;0;92;0;0;0;Mata Atlântica;Uso Sustentável;-23.4538;-46.5333
0000.35.2795;RESERVA PARTICULAR DO PATRIMÔNIO NATURAL RESERVA DO DADINHO;Estadual;Reserva Particular do Patrimônio Natural;SP;2012;2012;Resolução 54 de 29/06/2012;ATIBAIA (SP);12.0;0;0;0;12;0;0;0;Mata Atlântica;Uso Sustentável;-23.1171;-46.5563
0000.35.3387;RESERVA PARTICULAR DO PATRIMÔNIO NATURA BOTUJURU-SERRA DO ITAPETY;Estadual;Reserva Particular do Patrimônio Natural;SP;2014;2014;Resolução 78 de 30/09/2014;MOGI DAS CRUZES (SP);444.0;0;0;0;444;0;0;0;Mata Atlântica;Uso Sustentável;-23.5208;-46.1854
0000.35.3420;RESERVA PARTICULAR DO PATRIMÔNIO NATURAL RESERVA HINAYANA;Estadual;Reserva Particular do Patrimônio Natural;SP;2014;2014;Resolução 29 de 31/03/2014;MOGI DAS CRUZES (SP);4.0;0;0;0;4;0;0;0;Mata Atlântica;Uso Sustentável;-23.5208;-46.1854
0000.35.3423;RESERVA PARTICULAR DO PATRIMÔNIO NATURAL RESERVA DO JACU;Estadual;Reserva Particular do Patrimônio Natural;SP;2013;2013;Resolução 44 de 05/06/2013;ATIBAIA (SP);4.0;0;0;0;4;0;0;0;Mata Atlântica;Uso Sustentável;-23.1171;-46.5563
0000.35.3425;RPPN MARINA DO CONDE;Estadual;Reserva Particular do Patrimônio Natural;SP;2013;2013;Resolução 13 de 15/02/2013;GUARUJÁ (SP);8.0;0;0;0;8;0;0;0;Mata Atlântica;Uso Sustentável;-23.9888;-46.258
0000.35.3648;RESERVA PARTICULAR DO PATRIMÔNIO NATURAL SÍTIO SOLAR DA MONTANHA;Estadual;Reserva Particular do Patrimônio Natural;SP;2018;2018;Resolução ROSOLUÇÃO SMA N° 09 de 30/01/2018;ATIBAIA (SP);1.0;0;0;0;1;0;0;0;Mata Atlântica;Uso Sustentável;-23.1171;-46.5563
0000.35.3656;PARQUE ESTADUAL ÁGUAS DA BILLINGS;Estadual;Parque;SP;2018;2018;Decreto 63324 de 29/03/2018;SÃO BERNARDO DO CAMPO (SP);188.0;0;0;0;188;0;0;0;Mata Atlântica;Proteção Integral;-23.6914;-46.5646
0000.35.3742;ÁREA DE PROTEÇÃO AMBIENTAL HARAS SÃO BERNARDO;Estadual;Área de Proteção Ambiental;SP;1987;1987;Lei ordinária 5745 de 10/07/1987;SANTO ANDRÉ (SP);35.0;0;0;0;35;0;0;0;Mata Atlântica;Uso Sustentável;-23.6737;-46.5432
0000.35.3887;ÁREA DE PROTEÇÃO AMBIENTAL SERRA DO ITAPETI;Estadual;Área de Proteção Ambiental;SP;2018;2018;Decreto 63.871/2018 de 29/11/2018;GUARAREMA (SP) - MOGI DAS CRUZES (SP) - SUZANO (SP);5141.0;0;0;0;5141;0;0;0;Mata Atlântica;Uso Sustentável;-23.492266666666666;-46.17783333333333
0000.35.4074;RESERVA PARTICULAR DO PATRIMÔNIO NATURAL VUTURUSSU;Estadual;Reserva Particular do Patrimônio Natural;SP;2020;2020;Resolução 05 de 31/01/2020;SANTANA DE PARNAÍBA (SP);161.0;0;0;0;161;0;0;0;Mata Atlântica;Uso Sustentável;-23.4439;-46.9178
0000.35.4324;RESERVA PARTICULAR DO PATRIMÔNIO NATURAL JACARANDÁS;Estadual;Reserva Particular do Patrimônio Natural;SP;2021;2021;Resolução 134 de 09/12/2021;NAZARÉ PAULISTA (SP);10.0;0;0;0;10;0;0;0;Mata Atlântica;Uso Sustentável;-23.1747;-46.3983
0000.35.4335;RESERVA PARTICULAR DO PATRIMÔNIO NATURAL SÍTIO TAGUAÍBA II;Estadual;Reserva Particular do Patrimônio Natural;SP;2021;2021;Resolução 144 de 21/12/2021;ITANHAÉM (SP);168.0;0;0;0;168;0;0;0;Mata Atlântica;Uso Sustentável;-24.1736;-46.788
1000.31.2771;ÁREA DE PROTEÇÃO AMBIENTAL JUCA VIEIRA;Municipal;Área de Proteção Ambiental;MG;2002;2012;Lei complementar 2307/02 de 09/12/2002;CAETÉ (MG);3470.0;0;0;0;3470;0;0;0;Mata Atlântica;Uso Sustentável;-19.8826;-43.6704
1940.31.4070;ÁREA DE PROTEÇÃO AMBIENTAL SERRA DOS COCAIS;Municipal;Área de Proteção Ambiental;MG;2002;2020;Lei ordinária LEI 2.995/2002 de 01/03/2002;CORONEL FABRICIANO (MG);16693.0;0;0;0;16693;0;0;0;Mata Atlântica;Uso Sustentável;-19.5179;-42.6276
2390.35.3434;AREA DE PROTEÇÃO AMBIENTAL - PEDREGULHO;Municipal;Área de Proteção Ambiental;SP;2013;2013;Lei ordinária 1610 de 13/12/2013;ITU (SP);7497.0;0;0;0;7497;0;0;0;Mata Atlântica;Uso Sustentável;-23.2544;-47.2927
2590.35.2246;RESERVA BIOLÓGICA MUNICIPAL DA SERRA DO JAPI;Municipal;Reserva Biológica;SP;1991;1991;Lei ordinária 3672 de 10/01/1991;JUNDIAÍ (SP);2071.0;0;0;0;2071;0;0;0;Mata Atlântica;Proteção Integral;-23.1852;-46.8974
3560.35.2836;"PARQUE NATURAL MUNICIPAL ""DOUTOR RUI CALAZANS DE ARAÚJO""";Municipal;Parque;SP;2002;2002;Decreto 1875 de 04/02/2002;PARAIBUNA (SP);67.0;0;0;0;67;0;0;0;Mata Atlântica;Proteção Integral;-23.3872;-45.6639
4480.31.2798;PARQUE NATURAL MUNICIPAL REGO DOS CARRAPATOS;Municipal;Parque;MG;2012;2012;Decreto 4572 de 06/07/2012;NOVA LIMA (MG);34.0;0;0;0;34;0;0;0;Mata Atlântica;Proteção Integral;-19.9758;-43.8509
4730.35.2799;RESERVA BIOLÓGICA TAMBORÉ;Municipal;Reserva Biológica;SP;2005;2005;Lei ordinária 2689 de 21/12/2005;SANTANA DE PARNAÍBA (SP);367.0;0;0;0;367;0;0;0;Mata Atlântica;Proteção Integral;-23.4439;-46.9178
4780.35.2580;PARQUE NATURAL MUNICIPAL DO PEDROSO;Municipal;Parque;SP;1998;1998;Lei ordinária 7.733 de 14/10/1998;SANTO ANDRÉ (SP);857.0;0;0;0;857;0;0;0;Mata Atlântica;Proteção Integral;-23.6737;-46.5432
4780.35.2857;PARQUE NATURAL MUNICIPAL NASCENTES DE PARANAPIACABA;Municipal;Parque;SP;2003;2003;Decreto 14.937/2003 de 05/06/2003;SANTO ANDRÉ (SP);450.0;0;0;0;450;0;0;0;Mata Atlântica;Proteção Integral;-23.6737;-46.5432
4870.35.2955;PARQUE NATURAL MUNICIPAL ESTORIL - VIRGÍLIO SIMIONATO;Municipal;Parque;SP;2013;2013;Decreto 18684/2013 de 13/11/2013;SÃO BERNARDO DO CAMPO (SP);38.0;0;0;0;38;0;0;0;Mata Atlântica;Proteção Integral;-23.6914;-46.5646
5030.35.1959;ÁREA DE PROTEÇÃO AMBIENTAL MUNICIPAL DO CAPIVARI-MONOS;Municipal;Área de Proteção Ambiental;SP;2001;2001;Lei ordinária 13136 de 09/06/2001;SÃO PAULO (SP);25136.0;0;0;0;25136;0;0;0;Mata Atlântica;Uso Sustentável;-23.5329;-46.6395
5030.35.1961;ÁREA DE PROTEÇÃO AMBIENTAL BORORÉ-COLÔNIA;Municipal;Área de Proteção Ambiental;SP;2006;2006;Lei ordinária 14162 de 24/05/2006;SÃO PAULO (SP);8961.0;0;0;0;8961;0;0;0;Mata Atlântica;Uso Sustentável;-23.5329;-46.6395
5030.35.1971;PARQUE NATURAL MUNICIPAL DA CRATERA DE COLÔNIA;Municipal;Parque;SP;2007;2007;Decreto 48.423 de 11/06/2007;SÃO PAULO (SP);53.0;0;0;0;53;0;0;0;Mata Atlântica;Proteção Integral;-23.5329;-46.6395
5030.35.2562;RESERVA PARTICULAR DO PATRIMONIO NATURAL MUTINGA;Municipal;Reserva Particular do Patrimônio Natural;SP;2011;2011;Portaria 12 de 03/02/2011;SÃO PAULO (SP);3.0;0;0;0;3;0;0;0;Mata Atlântica;Uso Sustentável;-23.5329;-46.6395
5030.35.4079;REFÚGIO DE VIDA SILVESTRE ANHANGUERA;Municipal;Refúgio de Vida Silvestre;SP;2020;2020;Decreto 59.497 de 08/06/2020;SÃO PAULO (SP);741.0;0;0;0;741;0;0;0;Mata Atlântica;Proteção Integral;-23.5329;-46.6395
5060.35.3845;PARQUE NATURAL MUNICIPAL DE SÃO ROQUE;Municipal;Parque;SP;1999;1999;Lei ordinária 2499 de 19/03/1999;SÃO ROQUE (SP);120.0;0;0;0;120;0;0;0;Mata Atlântica;Proteção Integral;-23.5226;-47.1357
0000.26.5147;RESERVA PARTICULAR DO PATRIMÔNIO NATURAL JUSSARAL;Estadual;Reserva Particular do Patrimônio Natural;PE;2006;2006;Portaria 008/2006 de 27/12/2006;CATENDE (PE);292.0;0;0;0;292;0;0;0;Mata Atlântica;Uso Sustentável;-8.67509;-35.7024
0000.26.5148;RESERVA PARTICULAR DO PATRIMÔNIO NATURAL BICHO-HOMEM;Estadual;Reserva Particular do Patrimônio Natural;PE;2006;2006;Portaria 07/2006 de 27/12/2006;CATENDE (PE);94.0;0;0;0;94;0;0;0;Mata Atlântica;Uso Sustentável;-8.67509;-35.7024
0000.26.5150;RESERVA PARTICULAR DO PATRIMÔNIO NATURAL GAIPIÓ;Estadual;Reserva Particular do Patrimônio Natural;PE;2024;2024;Portaria 006/2024 de 05/01/2024;IPOJUCA (PE);88.0;0;0;0;88;0;0;0;Mata Atlântica;Uso Sustentável;-8.39303;-35.0609
0000.26.5151;RESERVA PARTICULAR DO PATRIMÔNIO NATURAL RPPN CONTESTADO;Estadual;Reserva Particular do Patrimônio Natural;PE;2008;2008;Portaria 002/2008 de 05/03/2008;MARAIAL (PE);89.0;0;0;0;89;0;0;0;Mata Atlântica;Uso Sustentável;-8.79062;-35.8266
0000.26.5152;RESERVA PARTICULAR DO PATRIMÔNIO RPPN - PEDRA D'ANTAS II;Estadual;Reserva Particular do Patrimônio Natural;PE;2021;2021;Portaria 126/2021 de 08/11/2021;LAGOA DOS GATOS (PE);73.0;0;0;0;73;0;0;0;Mata Atlântica;Uso Sustentável;-8.6602;-35.904
0000.26.5153;RESERVA PARTICULAR DO PATRIMÔNIO NATURAL ENGENHO DE SANTA RITA;Estadual;Reserva Particular do Patrimônio Natural;PE;2006;2006;Portaria 071/2006 de 27/04/2006;ÁGUA PRETA (PE);114.0;0;0;0;114;0;0;0;Mata Atlântica;Uso Sustentável;-8.70609;-35.5263
0000.27.1609;RESERVA PARTICULAR DO PATRIMÔNIO NATURAL CANADÁ;Estadual;Reserva Particular do Patrimônio Natural;AL;2007;2007;Portaria 004/2007 de 25/05/2007;MAR VERMELHO (AL);8.0;0;0;0;8;0;0;0;Mata Atlântica;Uso Sustentável;-9.44739;-36.3881
0000.27.1613;RESERVA PARTICULAR DO PATRIMÔNIO NATURAL BOA SORTE;Estadual;Reserva Particular do Patrimônio Natural;AL;2007;2007;Portaria 015/2007 de 21/11/2007;MURICI (AL);41.0;0;0;0;41;0;0;0;Mata Atlântica;Uso Sustentável;-9.30682;-35.9428
0000.27.2694;RESERVA PARTICULAR DO PATRIMÔNIO NATURAL CACHOEIRA 1;Estadual;Reserva Particular do Patrimônio Natural;AL;2009;2009;Portaria 012/2009 de 10/11/2009;MARAGOGI (AL);221.0;0;0;0;221;0;0;0;Mata Atlântica;Uso Sustentável;-9.00744;-35.2267
0000.27.2696;RESERVA PARTICULAR DO PATRIMÔNIO NATURAL BOSQUE;Estadual;Reserva Particular do Patrimônio Natural;AL;2009;2009;Portaria 015/2009 de 10/11/2009;MARAGOGI (AL);333.0;0;0;0;333;0;0;0;Mata Atlântica;Uso Sustentável;-9.00744;-35.2267
0000.27.5078;RESERVA PARTICULAR DO PATRIMÔNIO NATURAL ESTRELA DO SUL;Estadual;Reserva Particular do Patrimônio Natural;AL;2012;2012;Portaria 09/2012 de 03/12/2012;COLÔNIA LEOPOLDINA (AL);52.0;0;0;0;52;0;0;0;Mata Atlântica;Uso Sustentável;-8.91806;-35.7214
0000.27.5079;RESERVA PARTICULAR DO PATRIMÔNIO NATURAL PORTO ALEGRE;Estadual;Reserva Particular do Patrimônio Natural;AL;2012;2012;Portaria 10/2012 de 03/12/2012;COLÔNIA LEOPOLDINA (AL);53.0;0;0;0;53;0;0;0;Mata Atlântica;Uso Sustentável;-8.91806;-35.7214
0000.27.5080;RESERVA PARTICULAR DO PATRIMÔNIO NATURAL PAPA MEL;Estadual;Reserva Particular do Patrimônio Natural;AL;2012;2012;Portaria 08/2012 de 03/12/2012;COLÔNIA LEOPOLDINA (AL);27.0;0;0;0;27;0;0;0;Mata Atlântica;Uso Sustentável;-8.91806;-35.7214
0000.27.5081;RESERVA PARTICULAR DO PATRIMÔNIO NATURAL SERRA D'ÁGUA;Estadual;Reserva Particular do Patrimônio Natural;AL;2013;2013;Portaria 19/2013 de 12/12/2013;MATRIZ DE CAMARAGIBE (AL);194.0;0;0;0;194;0;0;0;Mata Atlântica;Uso Sustentável;-9.15437;-35.5243
0000.27.5082;RESERVA PARTICULAR DO PATRIMÔNIO NATURAL TARCIZO TOLEDO CARNAÚBA;Estadual;Reserva Particular do Patrimônio Natural;AL;2017;2017;Portaria 20/2017 de 01/06/2017;SÃO MIGUEL DOS CAMPOS (AL);110.0;0;0;0;110;0;0;0;Mata Atlântica;Uso Sustentável;-9.78301;-36.0971
